$GPGGA,095912.000,,,,,0,,,,,,,,*7E
$GPVTG,0.0,T,,M,0.0,N,0.0,K,N*02
$GPGSV,2,1,07,05,37,304,47,09,32,090,29,11,26,231,33,13,20,268,44*7A
$GPGSV,2,2,07,14,08,160,32,20,64,259,37,30,63,193,33*42
$GLGSV,1,1,03,65,33,304,45,81,17,340,34,88,23,285,45*53
$GAGSV,2,1,06,107,48,087,30,110,15,330,42,112,27,308,40,119,26,275,39*66
$GAGSV,2,2,06,127,24,142,30,130,36,081,35*60
$BDGSV,1,1,04,210,11,091,28,224,50,160,35,227,11,304,34,228,05,261,29*69
$GPRMC,095912.000,V,,,,,,,211123,,,N*49
$GPGGA,095912.980,5148.3028,N,01021.6933,E,1,24,0.4,566.1,M,47.4,M,,*56
$GPVTG,51.9,T,,M,33.9,N,62.8,K,A*35
$GPGSV,2,1,08,05,37,304,46,07,71,091,28,09,32,090,30,11,26,231,34*74
$GPGSV,2,2,08,13,20,268,45,14,08,160,32,20,64,259,37,30,63,193,33*70
$GLGSV,1,1,03,65,33,304,45,81,17,340,34,88,23,285,45*53
$GAGSV,2,1,06,107,48,087,30,110,15,330,42,112,27,308,40,119,26,275,39*66
$GAGSV,2,2,06,127,24,142,30,130,36,081,35*60
$BDGSV,2,1,07,210,11,091,31,214,76,128,25,224,50,160,38,225,07,199,27*64
$BDGSV,2,2,07,226,49,072,27,227,11,304,37,228,05,261,31*6A
$GPGSA,A,3,07,20,30,05,09,11,13,14,,,,,0.8,0.4,0.8*3B
$GNGSA,A,3,65,81,88,,,,,,,,,,0.8,0.4,0.8*22
$GAGSA,A,3,107,110,112,119,127,130,,,,,,,0.8,0.4,0.8*2C
$BDGSA,A,3,210,214,224,225,226,227,228,,,,,,0.8,0.4,0.8*1B
$GPRMC,095912.980,A,5148.3028,N,01021.6933,E,33.9,51.9,211123,,,A*63
$GPGGA,095913.300,5148.3065,N,01021.7002,E,1,24,0.4,561.1,M,47.4,M,,*51
$GPVTG,51.1,T,,M,34.9,N,64.6,K,A*32
$GPGSV,2,1,08,05,37,304,46,07,71,091,28,09,32,090,30,11,26,231,34*74
$GPGSV,2,2,08,13,20,268,45,14,08,160,32,20,64,259,37,30,63,193,33*70
$GLGSV,1,1,03,65,33,304,44,81,17,340,34,88,23,285,44*53
$GAGSV,2,1,06,107,48,087,30,110,15,330,41,112,27,308,39,119,26,275,38*6A
$GAGSV,2,2,06,127,24,142,31,130,36,081,34*60
$BDGSV,2,1,07,210,12,091,31,214,76,128,26,224,50,160,38,225,07,199,27*64
$BDGSV,2,2,07,226,49,072,27,227,11,304,38,228,05,261,32*66
$GPGSA,A,3,07,20,30,05,09,11,13,14,,,,,0.8,0.4,0.8*3B
$GNGSA,A,3,65,81,88,,,,,,,,,,0.8,0.4,0.8*22
$GAGSA,A,3,107,110,112,119,127,130,,,,,,,0.8,0.4,0.8*2C
$BDGSA,A,3,210,214,224,225,226,227,228,,,,,,0.8,0.4,0.8*1B
$GPRMC,095913.300,A,5148.3065,N,01021.7002,E,34.9,51.1,211123,,,A*6C
$GPGGA,095914.000,5148.3081,N,01021.7073,E,1,24,0.4,561.3,M,47.4,M,,*5B
$GPVTG,49.9,T,,M,32.8,N,60.7,K,A*31
$GPGSV,2,1,08,05,37,304,46,07,71,091,29,09,32,090,30,11,26,231,35*74
$GPGSV,2,2,08,13,20,268,45,14,08,160,32,20,64,259,37,30,63,193,33*70
$GLGSV,1,1,04,65,33,304,44,75,19,178,30,81,17,340,34,88,23,285,44*63
$GAGSV,2,1,07,102,13,030,24,107,48,087,30,110,15,330,41,112,27,308,39*69
$GAGSV,2,2,07,119,26,275,38,127,24,142,30,130,36,081,34*66
$BDGSV,2,1,07,210,12,091,31,214,76,128,28,224,50,160,38,225,07,199,27*6A
$BDGSV,2,2,07,226,49,072,27,227,11,304,38,228,05,261,34*60
$GPGSA,A,3,07,20,30,05,09,11,13,14,,,,,0.8,0.4,0.8*3B
$GNGSA,A,3,65,81,88,,,,,,,,,,0.8,0.4,0.8*22
$GAGSA,A,3,107,110,112,119,127,130,,,,,,,0.8,0.4,0.8*2C
$BDGSA,A,3,210,214,224,225,226,227,228,,,,,,0.8,0.4,0.8*1B
$GPRMC,095914.000,A,5148.3081,N,01021.7073,E,32.8,49.9,211123,,,A*62
$GPGGA,095915.000,5148.3128,N,01021.7155,E,1,22,0.6,566.4,M,47.4,M,,*59
$GPVTG,49.2,T,,M,35.0,N,64.7,K,A*31
$GPGSV,2,1,08,05,37,304,46,07,71,091,29,09,32,090,30,11,26,231,35*74
$GPGSV,2,2,08,13,20,268,45,14,08,160,32,20,64,259,37,30,63,193,33*70
$GLGSV,1,1,04,65,33,304,43,75,19,178,30,81,17,340,34,88,23,285,43*63
$GAGSV,2,1,07,102,13,030,24,107,48,087,32,110,15,330,40,112,27,308,38*6B
$GAGSV,2,2,07,119,26,275,37,127,24,142,30,130,36,081,33*6E
$BDGSV,2,1,07,210,12,091,32,214,76,128,29,224,50,160,38,225,07,199,26*69
$BDGSV,2,2,07,226,49,072,28,227,11,304,38,228,05,261,35*6E
$GPGSA,A,3,07,20,30,05,09,11,13,14,,,,,1.0,0.6,0.8*30
$GNGSA,A,3,65,75,81,88,,,,,,,,,1.0,0.6,0.8*2B
$GAGSA,A,3,107,112,119,127,,,,,,,,,1.0,0.6,0.8*25
$BDGSA,A,3,210,214,224,226,227,228,,,,,,,1.0,0.6,0.8*25
$GPRMC,095915.000,A,5148.3128,N,01021.7155,E,35.0,49.2,211123,,,A*60
$GPGGA,095916.000,5148.3214,N,01021.7281,E,1,23,0.4,568.2,M,47.4,M,,*57
$GPVTG,48.8,T,,M,34.6,N,64.2,K,A*38
$GPGSV,2,1,08,05,37,304,45,07,71,091,29,09,32,090,32,11,26,231,35*75
$GPGSV,2,2,08,13,20,268,45,14,08,160,32,20,64,259,37,30,63,193,33*70
$GLGSV,1,1,04,65,33,304,43,75,19,178,30,81,17,340,33,88,23,285,43*64
$GAGSV,2,1,08,102,13,030,24,107,48,087,30,110,15,330,39,112,27,308,38*68
$GAGSV,2,2,08,119,26,275,37,126,07,203,23,127,24,142,30,130,36,081,32*62
$BDGSV,2,1,07,210,12,091,32,214,76,128,29,224,50,160,38,225,07,199,26*69
$BDGSV,2,2,07,226,49,072,29,227,11,304,38,228,05,261,34*6E
$GPGSA,A,3,07,20,30,05,09,11,13,14,,,,,0.8,0.4,0.8*3B
$GNGSA,A,3,65,75,81,88,,,,,,,,,0.8,0.4,0.8*20
$GAGSA,A,3,102,112,119,127,130,,,,,,,,0.8,0.4,0.8*19
$BDGSA,A,3,210,214,224,225,226,227,,,,,,,0.8,0.4,0.8*23
$GPRMC,095916.000,A,5148.3214,N,01021.7281,E,34.6,48.8,211123,,,A*69
$GPGGA,095917.000,5148.3292,N,01021.7405,E,1,23,0.4,570.2,M,47.4,M,,*5B
$GPVTG,49.4,T,,M,34.2,N,63.4,K,A*30
$GPGSV,2,1,08,05,37,304,45,07,71,091,29,09,32,090,33,11,26,231,35*74
$GPGSV,2,2,08,13,20,268,45,14,08,160,32,20,64,259,37,30,63,193,33*70
$GLGSV,1,1,04,65,33,304,42,75,19,178,30,81,17,340,33,88,23,285,42*64
$GAGSV,2,1,08,102,13,030,24,107,48,087,29,110,15,330,38,112,27,308,37*6E
$GAGSV,2,2,08,119,26,275,37,126,07,203,23,127,24,142,30,130,36,081,31*61
$BDGSV,2,1,08,207,12,076,31,210,12,091,33,214,76,128,30,224,50,160,39*6C
$BDGSV,2,2,08,225,07,199,34,226,49,072,29,227,11,304,38,228,05,261,32*63
$GPGSA,A,3,07,20,30,05,09,11,13,14,,,,,0.8,0.4,0.8*3B
$GNGSA,A,3,65,75,81,88,,,,,,,,,0.8,0.4,0.8*20
$GAGSA,A,3,102,112,119,127,130,,,,,,,,0.8,0.4,0.8*19
$BDGSA,A,3,210,214,224,225,226,227,,,,,,,0.8,0.4,0.8*23
$GPRMC,095917.000,A,5148.3292,N,01021.7405,E,34.2,49.4,211123,,,A*65
$GPGGA,095918.000,5148.3355,N,01021.7523,E,1,24,0.4,571.9,M,47.4,M,,*56
$GPVTG,48.9,T,,M,33.6,N,62.3,K,A*39
$GPGSV,2,1,08,05,37,304,44,07,71,091,29,09,32,090,33,11,26,231,35*75
$GPGSV,2,2,08,13,20,268,45,14,08,160,32,20,64,259,37,30,63,193,34*77
$GLGSV,1,1,04,65,33,304,42,75,19,178,30,81,17,340,33,88,23,285,42*64
$GAGSV,2,1,08,102,13,030,24,107,48,087,27,110,15,330,36,112,27,308,37*6E
$GAGSV,2,2,08,119,26,275,36,126,07,203,23,127,24,142,30,130,36,081,31*60
$BDGSV,2,1,08,207,12,076,31,210,12,091,33,214,76,128,30,224,50,160,39*6C
$BDGSV,2,2,08,225,07,199,34,226,49,072,29,227,11,304,38,228,05,261,31*60
$GPGSA,A,3,07,20,30,05,09,11,13,14,,,,,0.8,0.4,0.6*35
$GNGSA,A,3,65,75,81,88,,,,,,,,,0.8,0.4,0.6*2E
$GAGSA,A,3,102,112,119,126,127,130,,,,,,,0.8,0.4,0.6*22
$BDGSA,A,3,207,210,214,224,226,227,,,,,,,0.8,0.4,0.6*2D
$GPRMC,095918.000,A,5148.3355,N,01021.7523,E,33.6,48.9,211123,,,A*6A
$GPGGA,095919.000,5148.3417,N,01021.7639,E,1,24,0.4,571.6,M,47.4,M,,*51
$GPVTG,48.2,T,,M,32.4,N,60.0,K,A*30
$GPGSV,2,1,08,05,37,304,44,07,71,091,29,09,32,090,33,11,26,231,35*75
$GPGSV,2,2,08,13,20,268,44,14,08,160,32,20,64,259,37,30,63,193,34*76
$GLGSV,1,1,04,65,33,304,41,75,19,178,30,81,17,340,33,88,23,285,41*64
$GAGSV,2,1,08,102,13,030,24,107,48,087,26,110,15,330,35,112,27,308,36*6D
$GAGSV,2,2,08,119,26,275,36,126,07,203,23,127,24,142,30,130,36,081,30*61
$BDGSV,2,1,08,207,12,076,31,210,12,091,33,214,76,128,30,224,50,160,39*6C
$BDGSV,2,2,08,225,07,199,34,226,49,072,30,227,11,304,38,228,05,261,29*61
$GPGSA,A,3,07,20,30,05,09,11,13,14,,,,,0.8,0.4,0.6*35
$GNGSA,A,3,65,75,81,88,,,,,,,,,0.8,0.4,0.6*2E
$GAGSA,A,3,102,112,119,126,127,130,,,,,,,0.8,0.4,0.6*22
$BDGSA,A,3,207,210,214,224,226,227,,,,,,,0.8,0.4,0.6*2D
$GPRMC,095919.000,A,5148.3417,N,01021.7639,E,32.4,48.2,211123,,,A*6A
$GPGGA,095920.000,5148.3473,N,01021.7747,E,1,24,0.4,571.9,M,47.4,M,,*5E
$GPVTG,49.2,T,,M,31.5,N,58.3,K,A*3B
$GPGSV,2,1,08,05,37,304,43,07,71,091,29,09,32,090,33,11,26,231,35*72
$GPGSV,2,2,08,13,20,268,44,14,08,160,32,20,64,259,37,30,63,193,34*76
$GLGSV,1,1,04,65,33,304,41,75,19,178,30,81,17,340,33,88,23,285,41*64
$GAGSV,2,1,08,102,13,030,23,107,48,087,24,110,15,330,33,112,27,308,36*6E
$GAGSV,2,2,08,119,26,275,36,126,07,203,22,127,24,142,30,130,36,081,30*60
$BDGSV,2,1,08,207,12,076,31,210,12,091,32,214,76,128,30,224,50,160,40*63
$BDGSV,2,2,08,225,07,199,34,226,49,072,30,227,11,304,38,228,05,261,28*60
$GPGSA,A,3,07,20,30,05,09,11,13,14,,,,,0.8,0.4,0.6*35
$GNGSA,A,3,65,75,81,88,,,,,,,,,0.8,0.4,0.6*2E
$GAGSA,A,3,102,112,119,126,127,130,,,,,,,0.8,0.4,0.6*22
$BDGSA,A,3,207,210,214,224,226,227,,,,,,,0.8,0.4,0.6*2D
$GPRMC,095920.000,A,5148.3473,N,01021.7747,E,31.5,49.2,211123,,,A*69
$GPGGA,095921.000,5148.3529,N,01021.7851,E,1,24,0.4,571.8,M,47.4,M,,*58
$GPVTG,49.5,T,,M,29.3,N,54.2,K,A*3E
$GPGSV,2,1,08,05,37,304,43,07,71,091,29,09,32,090,33,11,26,231,35*72
$GPGSV,2,2,08,13,20,268,43,14,08,160,32,20,64,259,37,30,63,193,34*71
$GLGSV,1,1,04,65,33,304,41,75,19,178,30,81,17,340,33,88,23,285,41*64
$GAGSV,2,1,08,102,13,030,23,107,48,087,23,110,15,330,32,112,27,308,36*68
$GAGSV,2,2,08,119,26,275,35,126,07,203,22,127,24,142,30,130,36,081,29*6B
$BDGSV,2,1,08,207,12,076,31,210,12,091,32,214,76,128,30,224,50,160,40*63
$BDGSV,2,2,08,225,07,199,34,226,49,072,30,227,11,304,37,228,05,261,26*61
$GPGSA,A,3,07,20,30,05,09,11,13,14,,,,,0.8,0.4,0.6*35
$GNGSA,A,3,65,75,81,88,,,,,,,,,0.8,0.4,0.6*2E
$GAGSA,A,3,102,112,119,126,127,130,,,,,,,0.8,0.4,0.6*22
$BDGSA,A,3,207,210,214,224,226,227,,,,,,,0.8,0.4,0.6*2D
$GPRMC,095921.000,A,5148.3529,N,01021.7851,E,29.3,49.5,211123,,,A*66
$GPGGA,095922.000,5148.3581,N,01021.7947,E,1,24,0.4,571.3,M,47.4,M,,*54
$GPVTG,48.7,T,,M,27.6,N,51.1,K,A*30
$GPGSV,3,1,09,05,37,304,42,06,07,203,23,07,71,091,29,09,32,090,33*70
$GPGSV,3,2,09,11,26,231,35,13,20,268,42,14,08,160,32,20,64,259,36*79
$GPGSV,3,3,09,30,63,193,34*4A
$GLGSV,1,1,04,65,33,304,40,75,19,178,31,81,17,340,33,88,23,285,40*65
$GAGSV,2,1,08,102,13,030,23,107,48,087,21,110,15,330,30,112,27,308,35*6B
$GAGSV,2,2,08,119,26,275,34,126,07,203,22,127,24,142,30,130,36,081,29*6A
$BDGSV,3,1,09,207,12,076,31,209,18,058,29,210,12,091,32,214,76,128,30*65
$BDGSV,3,2,09,224,50,160,41,225,07,199,34,226,49,072,30,227,11,304,37*6E
$BDGSV,3,3,09,228,05,261,25*6E
$GPGSA,A,3,07,20,30,05,09,11,13,14,,,,,0.8,0.4,0.6*35
$GNGSA,A,3,65,75,81,88,,,,,,,,,0.8,0.4,0.6*2E
$GAGSA,A,3,102,112,119,126,127,130,,,,,,,0.8,0.4,0.6*22
$BDGSA,A,3,207,210,214,224,226,227,,,,,,,0.8,0.4,0.6*2D
$GPRMC,095922.000,A,5148.3581,N,01021.7947,E,27.6,48.7,211123,,,A*69
$GPGGA,095923.000,5148.3631,N,01021.8037,E,1,22,0.4,570.6,M,47.4,M,,*5E
$GPVTG,48.8,T,,M,25.9,N,48.0,K,A*3B
$GPGSV,3,1,09,05,37,304,41,06,07,203,25,07,71,091,29,09,32,090,33*75
$GPGSV,3,2,09,11,26,231,35,13,20,268,42,14,08,160,32,20,64,259,36*79
$GPGSV,3,3,09,30,63,193,34*4A
$GLGSV,2,1,05,65,33,304,39,73,42,047,31,75,19,178,31,81,17,340,33*60
$GLGSV,2,2,05,88,23,285,39*54
$GAGSV,2,1,08,102,13,030,23,107,48,087,20,110,15,330,29,112,27,308,34*63
$GAGSV,2,2,08,119,26,275,33,126,07,203,20,127,24,142,30,130,36,081,29*6F
$BDGSV,3,1,10,207,12,076,30,209,18,058,29,210,12,091,31,214,76,128,30*6F
$BDGSV,3,2,10,224,50,160,41,225,07,199,33,226,49,072,30,227,11,304,36*60
$BDGSV,3,3,10,228,05,261,23,233,80,279,29*6D
$GPGSA,A,3,07,20,30,05,09,11,13,14,06,,,,0.8,0.4,0.6*33
$GNGSA,A,3,75,81,,,,,,,,,,,0.8,0.4,0.6*2D
$GAGSA,A,3,102,112,119,127,130,,,,,,,,0.8,0.4,0.6*17
$BDGSA,A,3,207,210,214,224,226,227,,,,,,,0.8,0.4,0.6*2D
$GPRMC,095923.000,A,5148.3631,N,01021.8037,E,25.9,48.8,211123,,,A*63
$GPGGA,095924.000,5148.3678,N,01021.8120,E,1,23,0.4,570.7,M,47.4,M,,*53
$GPVTG,48.8,T,,M,23.2,N,43.0,K,A*3D
$GPGSV,3,1,09,05,37,304,41,06,07,203,26,07,71,091,29,09,32,090,33*76
$GPGSV,3,2,09,11,26,231,35,13,20,268,41,14,08,160,32,20,64,259,36*7A
$GPGSV,3,3,09,30,63,193,34*4A
$GLGSV,2,1,05,65,33,304,38,73,42,047,31,75,19,178,31,81,17,340,32*60
$GLGSV,2,2,05,88,23,285,38*55
$GAGSV,2,1,08,102,13,030,22,107,48,087,18,110,15,330,27,112,27,308,33*60
$GAGSV,2,2,08,119,26,275,32,126,07,203,19,127,24,142,30,130,36,081,28*65
$BDGSV,3,1,10,207,12,076,30,209,18,058,29,210,12,091,31,214,76,128,30*6F
$BDGSV,3,2,10,224,50,160,41,225,07,199,31,226,49,072,30,227,11,304,36*62
$BDGSV,3,3,10,228,05,261,22,233,80,279,31*65
$GPGSA,A,3,07,20,30,05,09,11,13,14,06,,,,0.8,0.4,0.8*3D
$GNGSA,A,3,65,75,81,,,,,,,,,,0.8,0.4,0.8*20
$GAGSA,A,3,102,112,119,127,130,,,,,,,,0.8,0.4,0.8*19
$BDGSA,A,3,207,209,210,214,224,226,,,,,,,0.8,0.4,0.8*2F
$GPRMC,095924.000,A,5148.3678,N,01021.8120,E,23.2,48.8,211123,,,A*63
$GPGGA,095925.000,5148.3719,N,01021.8191,E,1,24,0.4,570.0,M,47.4,M,,*5E
$GPVTG,48.1,T,,M,19.8,N,36.6,K,A*33
$GPGSV,3,1,09,05,37,304,40,06,07,203,26,07,71,091,29,09,32,090,33*77
$GPGSV,3,2,09,11,26,231,35,13,20,268,40,14,08,160,32,20,64,259,36*7B
$GPGSV,3,3,09,30,63,193,34*4A
$GLGSV,2,1,05,65,33,304,38,73,42,047,31,75,19,178,31,81,17,340,32*60
$GLGSV,2,2,05,88,23,285,38*55
$GAGSV,2,1,08,102,13,030,22,107,48,087,17,110,15,330,26,112,27,308,32*6F
$GAGSV,2,2,08,119,26,275,31,126,07,203,17,127,24,142,30,130,36,081,28*68
$BDGSV,3,1,10,207,12,076,30,209,18,058,29,210,12,091,31,214,76,128,30*6F
$BDGSV,3,2,10,224,50,160,41,225,07,199,30,226,49,072,29,227,11,304,35*68
$BDGSV,3,3,10,228,05,261,20,233,80,279,32*64
$GPGSA,A,3,07,20,30,05,09,11,13,14,06,,,,0.8,0.4,0.6*33
$GNGSA,A,3,65,73,75,81,,,,,,,,,0.8,0.4,0.6*2A
$GAGSA,A,3,102,112,119,127,130,,,,,,,,0.8,0.4,0.6*17
$BDGSA,A,3,207,209,210,214,224,226,,,,,,,0.8,0.4,0.6*21
$GPRMC,095925.000,A,5148.3719,N,01021.8191,E,19.8,48.1,211123,,,A*64
$GPGGA,095926.000,5148.3752,N,01021.8257,E,1,24,0.4,569.3,M,47.4,M,,*50
$GPVTG,49.3,T,,M,17.7,N,32.8,K,A*3B
$GPGSV,3,1,09,05,37,304,40,06,07,203,26,07,71,091,29,09,32,090,33*77
$GPGSV,3,2,09,11,26,231,35,13,20,268,39,14,08,160,31,20,64,259,36*76
$GPGSV,3,3,09,30,63,193,34*4A
$GLGSV,2,1,05,65,33,304,37,73,42,047,31,75,19,178,31,81,17,340,32*6F
$GLGSV,2,2,05,88,23,285,37*5A
$GAGSV,2,1,08,102,13,030,22,107,48,087,15,110,15,330,24,112,27,308,32*6F
$GAGSV,2,2,08,119,26,275,30,126,07,203,16,127,24,142,30,130,36,081,28*68
$BDGSV,3,1,10,207,12,076,29,209,18,058,28,210,12,091,31,214,76,128,30*66
$BDGSV,3,2,10,224,50,160,40,225,07,199,28,226,49,072,29,227,11,304,35*60
$BDGSV,3,3,10,228,05,261,19,233,80,279,32*6E
$GPGSA,A,3,07,20,30,05,09,11,13,14,06,,,,0.8,0.4,0.6*33
$GNGSA,A,3,65,73,75,81,,,,,,,,,0.8,0.4,0.6*2A
$GAGSA,A,3,102,112,119,127,130,,,,,,,,0.8,0.4,0.6*17
$BDGSA,A,3,207,209,210,214,224,226,,,,,,,0.8,0.4,0.6*21
$GPRMC,095926.000,A,5148.3752,N,01021.8257,E,17.7,49.3,211123,,,A*63
$GPGGA,095927.000,5148.3780,N,01021.8307,E,1,24,0.4,568.7,M,47.4,M,,*5F
$GPVTG,53.1,T,,M,12.8,N,23.8,K,A*38
$GPGSV,3,1,09,05,37,304,39,06,07,203,26,07,71,091,29,09,32,090,33*79
$GPGSV,3,2,09,11,26,231,35,13,20,268,38,14,08,160,32,20,64,259,36*74
$GPGSV,3,3,09,30,63,193,34*4A
$GLGSV,2,1,05,65,33,304,36,73,42,047,31,75,19,178,31,81,17,340,31*6D
$GLGSV,2,2,05,88,23,285,36*5B
$GAGSV,2,1,08,102,13,030,22,107,48,087,14,110,15,330,23,112,27,308,31*6A
$GAGSV,2,2,08,119,26,275,29,126,07,203,14,127,24,142,30,130,36,081,28*62
$BDGSV,3,1,10,207,12,076,29,209,18,058,28,210,12,091,31,214,76,128,30*66
$BDGSV,3,2,10,224,50,160,40,225,07,199,27,226,49,072,29,227,11,304,34*6E
$BDGSV,3,3,10,228,05,261,17,233,80,279,32*60
$GPGSA,A,3,07,20,30,05,09,11,13,14,06,,,,0.8,0.4,0.6*33
$GNGSA,A,3,65,73,75,81,,,,,,,,,0.8,0.4,0.6*2A
$GAGSA,A,3,102,112,119,127,130,,,,,,,,0.8,0.4,0.6*17
$BDGSA,A,3,207,209,210,214,224,226,,,,,,,0.8,0.4,0.6*21
$GPRMC,095927.000,A,5148.3780,N,01021.8307,E,12.8,53.1,211123,,,A*6A
$GPGGA,095928.000,5148.3799,N,01021.8343,E,1,23,0.4,567.8,M,47.4,M,,*5F
$GPVTG,55.5,T,,M,9.7,N,17.9,K,A*09
$GPGSV,3,1,09,05,37,304,39,06,07,203,26,07,71,091,29,09,32,090,33*79
$GPGSV,3,2,09,11,26,231,35,13,20,268,37,14,08,160,34,20,64,259,36*7D
$GPGSV,3,3,09,30,63,193,34*4A
$GLGSV,2,1,07,65,33,304,36,71,32,103,25,73,42,047,30,74,59,124,28*62
$GLGSV,2,2,07,75,19,178,31,81,17,340,31,88,23,285,36*55
$GAGSV,2,1,08,102,13,030,20,107,48,087,14,110,15,330,21,112,27,308,30*6B
$GAGSV,2,2,08,119,26,275,29,126,07,203,14,127,24,142,30,130,36,081,28*62
$BDGSV,3,1,10,207,12,076,29,209,18,058,28,210,12,091,31,214,76,128,30*66
$BDGSV,3,2,10,224,50,160,40,225,07,199,25,226,49,072,29,227,11,304,34*6C
$BDGSV,3,3,10,228,05,261,16,233,80,279,32*61
$GPGSA,A,3,07,20,30,05,09,11,13,14,06,,,,0.8,0.4,0.8*3D
$GNGSA,A,3,65,73,75,81,,,,,,,,,0.8,0.4,0.8*24
$GAGSA,A,3,112,119,127,130,,,,,,,,,0.8,0.4,0.8*2A
$BDGSA,A,3,207,209,210,214,224,226,,,,,,,0.8,0.4,0.8*2F
$GPRMC,095928.000,A,5148.3799,N,01021.8343,E,9.7,55.5,211123,,,A*5A
$GPGGA,095929.000,5148.3813,N,01021.8371,E,1,22,0.4,568.0,M,47.4,M,,*54
$GPVTG,54.9,T,,M,7.0,N,12.9,K,A*08
$GPGSV,3,1,09,05,37,304,38,06,07,203,26,07,71,091,29,09,32,090,33*78
$GPGSV,3,2,09,11,26,231,35,13,20,268,36,14,08,160,35,20,64,259,36*7D
$GPGSV,3,3,09,30,63,193,34*4A
$GLGSV,2,1,07,65,33,304,35,71,32,103,27,73,42,047,30,74,59,124,28*63
$GLGSV,2,2,07,75,19,178,31,81,17,340,30,88,23,285,35*57
$GAGSV,2,1,08,102,13,030,19,107,48,087,13,110,15,330,20,112,27,308,30*67
$GAGSV,2,2,08,119,26,275,28,126,07,203,13,127,24,142,30,130,36,081,27*6B
$BDGSV,3,1,10,207,12,076,29,209,18,058,28,210,12,091,31,214,76,128,30*66
$BDGSV,3,2,10,224,50,160,40,225,07,199,24,226,49,072,30,227,11,304,34*65
$BDGSV,3,3,10,228,05,261,14,233,80,279,32*63
$GPGSA,A,3,07,20,30,05,09,11,13,14,06,,,,0.8,0.4,0.8*3D
$GNGSA,A,3,65,73,75,81,,,,,,,,,0.8,0.4,0.8*24
$GAGSA,A,3,112,119,127,,,,,,,,,,0.8,0.4,0.8*18
$BDGSA,A,3,207,209,210,214,224,226,,,,,,,0.8,0.4,0.8*2F
$GPRMC,095929.000,A,5148.3813,N,01021.8371,E,7.0,54.9,211123,,,A*53
$GPGGA,095930.000,5148.3822,N,01021.8388,E,1,23,0.4,568.3,M,47.4,M,,*5A
$GPVTG,54.6,T,,M,3.3,N,6.0,K,A*3C
$GPGSV,3,1,09,05,37,304,38,06,07,203,26,07,71,091,30,09,32,090,33*70
$GPGSV,3,2,09,11,26,231,35,13,20,268,36,14,08,160,35,20,64,259,36*7D
$GPGSV,3,3,09,30,63,193,34*4A
$GLGSV,2,1,07,65,33,304,35,71,32,103,28,73,42,047,30,74,59,124,29*6D
$GLGSV,2,2,07,75,19,178,31,81,17,340,30,88,23,285,35*57
$GAGSV,2,1,08,102,13,030,17,107,48,087,12,110,15,330,18,112,27,308,29*6B
$GAGSV,2,2,08,119,26,275,27,126,07,203,12,127,24,142,30,130,36,081,27*65
$BDGSV,3,1,10,207,12,076,29,209,18,058,28,210,12,091,32,214,76,128,31*64
$BDGSV,3,2,10,224,50,160,41,225,07,199,22,226,49,072,30,227,11,304,33*65
$BDGSV,3,3,10,228,05,261,13,233,80,279,32*64
$GPGSA,A,3,07,20,30,05,09,11,13,14,,,,,1.0,0.4,0.8*32
$GNGSA,A,3,65,71,73,74,75,81,,,,,,,1.0,0.4,0.8*28
$GAGSA,A,3,112,119,127,,,,,,,,,,1.0,0.4,0.8*11
$BDGSA,A,3,207,209,210,214,224,226,,,,,,,1.0,0.4,0.8*26
$GPRMC,095930.000,A,5148.3822,N,01021.8388,E,3.3,54.6,211123,,,A*57
$GPGGA,095931.000,5148.3825,N,01021.8395,E,1,23,0.4,569.0,M,47.4,M,,*52
$GPVTG,54.8,T,,M,0.2,N,0.4,K,A*32
$GPGSV,3,1,09,05,37,304,38,06,07,203,26,07,71,091,30,09,32,090,33*70
$GPGSV,3,2,09,11,26,231,35,13,20,268,35,14,08,160,35,20,64,259,35*7D
$GPGSV,3,3,09,30,63,193,34*4A
$GLGSV,2,1,07,65,33,304,34,71,32,103,29,73,42,047,30,74,59,124,29*6D
$GLGSV,2,2,07,75,19,178,31,81,17,340,30,88,23,285,35*57
$GAGSV,2,1,06,102,13,030,16,110,15,330,17,112,27,308,29,119,26,275,27*65
$GAGSV,2,2,06,127,24,142,30,130,36,081,28*6C
$BDGSV,3,1,10,207,12,076,29,209,18,058,28,210,12,091,32,214,76,128,31*64
$BDGSV,3,2,10,224,50,160,42,225,07,199,21,226,49,072,30,227,11,304,33*65
$BDGSV,3,3,10,228,05,261,13,233,80,279,32*64
$GPGSA,A,3,07,20,30,05,09,11,13,14,,,,,1.0,0.4,0.8*32
$GNGSA,A,3,65,71,73,74,75,81,,,,,,,1.0,0.4,0.8*28
$GAGSA,A,3,112,119,127,,,,,,,,,,1.0,0.4,0.8*11
$BDGSA,A,3,207,209,210,214,224,226,,,,,,,1.0,0.4,0.8*26
$GPRMC,095931.000,A,5148.3825,N,01021.8395,E,0.2,54.8,211123,,,A*51
$GPGGA,095932.000,5148.3825,N,01021.8397,E,1,21,0.4,569.0,M,47.4,M,,*51
$GPVTG,54.9,T,,M,0.3,N,0.6,K,A*30
$GPGSV,3,1,09,05,37,304,37,06,07,203,26,07,71,091,30,09,32,090,33*7F
$GPGSV,3,2,09,11,26,231,35,13,20,268,35,14,08,160,35,20,64,259,35*7D
$GPGSV,3,3,09,30,63,193,34*4A
$GLGSV,2,1,07,65,33,304,34,71,32,103,29,73,42,047,30,74,59,124,29*6D
$GLGSV,2,2,07,75,19,178,31,81,17,340,30,88,23,285,34*56
$GAGSV,2,1,06,102,13,030,14,110,15,330,15,112,27,308,29,119,26,275,26*64
$GAGSV,2,2,06,127,24,142,31,130,36,081,28*6D
$BDGSV,3,1,10,207,12,076,28,209,18,058,29,210,12,091,32,214,76,128,31*64
$BDGSV,3,2,10,224,50,160,42,225,07,199,19,226,49,072,30,227,11,304,32*6F
$BDGSV,3,3,10,228,05,261,12,233,80,279,32*65
$GPGSA,A,3,07,20,30,05,09,11,13,14,,,,,1.0,0.4,0.8*32
$GNGSA,A,3,65,71,73,74,75,,,,,,,,1.0,0.4,0.8*21
$GAGSA,A,3,112,119,127,,,,,,,,,,1.0,0.4,0.8*11
$BDGSA,A,3,207,209,210,214,224,,,,,,,,1.0,0.4,0.8*10
$GPRMC,095932.000,A,5148.3825,N,01021.8397,E,0.3,54.9,211123,,,A*50
$GPGGA,095933.000,5148.3825,N,01021.8397,E,1,24,0.4,568.9,M,47.4,M,,*5D
$GPVTG,55.0,T,,M,0.0,N,0.0,K,A*3D
$GPGSV,3,1,09,05,37,304,37,06,07,203,26,07,71,091,30,09,32,090,32*7E
$GPGSV,3,2,09,11,26,231,35,13,20,268,34,14,08,160,35,20,64,259,34*7D
$GPGSV,3,3,09,30,63,193,34*4A
$GLGSV,2,1,07,65,33,304,33,71,32,103,29,73,42,047,30,74,59,124,29*6A
$GLGSV,2,2,07,75,19,178,31,81,17,340,30,88,23,285,34*56
$GAGSV,2,1,06,102,13,030,13,110,15,330,14,112,27,308,28,119,26,275,26*63
$GAGSV,2,2,06,127,24,142,31,130,36,081,28*6D
$BDGSV,3,1,09,207,12,076,28,209,18,058,29,210,12,091,32,214,76,128,31*6C
$BDGSV,3,2,09,224,50,160,43,225,07,199,18,226,49,072,30,227,11,304,32*67
$BDGSV,3,3,09,233,80,279,33*67
$GPGSA,A,3,07,20,30,05,09,11,13,14,06,,,,0.8,0.4,0.6*33
$GNGSA,A,3,65,71,73,74,75,81,,,,,,,0.8,0.4,0.6*2F
$GAGSA,A,3,112,119,127,,,,,,,,,,0.8,0.4,0.6*16
$BDGSA,A,3,207,209,210,214,224,226,,,,,,,0.8,0.4,0.6*21
$GPRMC,095933.000,A,5148.3825,N,01021.8397,E,0.0,55.0,211123,,,A*5A
$GPGGA,095934.000,5148.3825,N,01021.8397,E,1,23,0.4,569.0,M,47.4,M,,*55
$GPVTG,55.0,T,,M,0.0,N,0.0,K,A*3D
$GPGSV,3,1,09,05,37,304,37,06,07,203,26,07,71,091,30,09,32,090,32*7E
$GPGSV,3,2,09,11,26,231,36,13,20,268,34,14,08,160,35,20,64,259,34*7E
$GPGSV,3,3,09,30,63,193,34*4A
$GLGSV,2,1,07,65,33,304,32,71,32,103,29,73,42,047,30,74,59,124,29*6B
$GLGSV,2,2,07,75,19,178,31,81,17,340,29,88,23,285,34*5E
$GAGSV,2,1,06,102,13,030,13,110,15,330,13,112,27,308,28,119,26,275,25*67
$GAGSV,2,2,06,127,24,142,31,130,36,081,28*6D
$BDGSV,3,1,09,207,12,076,28,209,18,058,29,210,12,091,32,214,76,128,31*6C
$BDGSV,3,2,09,224,50,160,43,225,07,199,16,226,49,072,30,227,11,304,32*69
$BDGSV,3,3,09,233,80,279,33*67
$GPGSA,A,3,07,20,30,05,09,11,14,06,,,,,0.8,0.4,0.8*3F
$GNGSA,A,3,65,71,73,74,75,81,,,,,,,0.8,0.4,0.8*21
$GAGSA,A,3,112,119,127,,,,,,,,,,0.8,0.4,0.8*18
$BDGSA,A,3,207,209,210,214,224,226,,,,,,,0.8,0.4,0.8*2F
$GPRMC,095934.000,A,5148.3825,N,01021.8397,E,0.0,55.0,211123,,,A*5D
$GPGGA,095935.000,5148.3825,N,01021.8397,E,1,23,0.4,569.0,M,47.4,M,,*54
$GPVTG,55.0,T,,M,0.0,N,0.0,K,A*3D
$GPGSV,3,1,09,05,37,304,36,06,07,203,26,07,71,091,30,09,32,090,31*7C
$GPGSV,3,2,09,11,26,231,36,13,20,268,33,14,08,160,35,20,64,259,33*7E
$GPGSV,3,3,09,30,63,193,34*4A
$GLGSV,2,1,07,65,33,304,31,71,32,103,29,73,42,047,30,74,59,124,29*68
$GLGSV,2,2,07,75,19,178,31,81,17,340,29,88,23,285,34*5E
$GAGSV,2,1,06,102,13,030,12,110,15,330,12,112,27,308,28,119,26,275,25*67
$GAGSV,2,2,06,127,24,142,32,130,36,081,28*6E
$BDGSV,3,1,09,207,12,076,28,209,18,058,29,210,12,091,32,214,76,128,31*6C
$BDGSV,3,2,09,224,50,160,43,225,07,199,15,226,49,072,29,227,11,304,32*62
$BDGSV,3,3,09,233,80,279,34*60
$GPGSA,A,3,07,20,30,05,09,11,13,14,,,,,1.0,0.4,0.8*32
$GNGSA,A,3,65,71,73,74,75,81,,,,,,,1.0,0.4,0.8*28
$GAGSA,A,3,112,119,127,,,,,,,,,,1.0,0.4,0.8*11
$BDGSA,A,3,207,209,210,214,224,226,,,,,,,1.0,0.4,0.8*26
$GPRMC,095935.000,A,5148.3825,N,01021.8397,E,0.0,55.0,211123,,,A*5C
$GPGGA,095936.000,5148.3825,N,01021.8397,E,1,21,0.4,569.0,M,47.4,M,,*55
$GPVTG,55.0,T,,M,0.0,N,0.0,K,A*3D
$GPGSV,3,1,09,05,37,304,36,06,07,203,26,07,71,091,30,09,32,090,31*7C
$GPGSV,3,2,09,11,26,231,36,13,20,268,33,14,08,160,35,20,64,259,32*7F
$GPGSV,3,3,09,30,63,193,33*4D
$GLGSV,2,1,07,65,33,304,30,71,32,103,29,73,42,047,30,74,59,124,29*69
$GLGSV,2,2,07,75,19,178,32,81,17,340,29,88,23,285,33*5A
$GAGSV,1,1,04,112,27,308,28,119,26,275,24,127,24,142,32,130,36,081,28*61
$BDGSV,3,1,09,207,12,076,28,209,18,058,29,210,12,091,31,214,76,128,31*6F
$BDGSV,3,2,09,224,50,160,43,225,07,199,14,226,49,072,29,227,11,304,31*60
$BDGSV,3,3,09,233,80,279,34*60
$GPGSA,A,3,07,20,30,05,11,13,14,,,,,,1.0,0.4,0.8*3B
$GNGSA,A,3,65,71,73,74,75,81,,,,,,,1.0,0.4,0.8*28
$GAGSA,A,3,112,119,127,,,,,,,,,,1.0,0.4,0.8*11
$BDGSA,A,3,209,210,214,224,226,,,,,,,,1.0,0.4,0.8*13
$GPRMC,095936.000,A,5148.3825,N,01021.8397,E,0.0,55.0,211123,,,A*5F
$GPGGA,095937.000,5148.3825,N,01021.8397,E,1,24,0.4,569.0,M,47.4,M,,*51
$GPVTG,54.9,T,,M,0.0,N,0.0,K,A*35
$GPGSV,3,1,09,05,37,304,36,06,07,203,26,07,71,091,30,09,32,090,30*7D
$GPGSV,3,2,09,11,26,231,37,13,20,268,33,14,08,160,35,20,64,259,32*7E
$GPGSV,3,3,09,30,63,193,33*4D
$GLGSV,2,1,07,65,33,304,29,71,32,103,29,73,42,047,30,74,59,124,29*61
$GLGSV,2,2,07,75,19,178,32,81,17,340,29,88,23,285,33*5A
$GAGSV,1,1,04,112,27,308,27,119,26,275,24,127,24,142,32,130,36,081,28*6E
$BDGSV,3,1,09,207,12,076,27,209,18,058,29,210,12,091,31,214,76,128,31*60
$BDGSV,3,2,09,224,50,160,43,225,07,199,13,226,49,072,28,227,11,304,31*66
$BDGSV,3,3,09,233,80,279,34*60
$GPGSA,A,3,07,20,30,05,09,11,13,14,06,,,,0.8,0.4,0.6*33
$GNGSA,A,3,65,71,73,74,75,81,,,,,,,0.8,0.4,0.6*2F
$GAGSA,A,3,112,119,127,,,,,,,,,,0.8,0.4,0.6*16
$BDGSA,A,3,207,209,210,214,224,226,,,,,,,0.8,0.4,0.6*21
$GPRMC,095937.000,A,5148.3825,N,01021.8397,E,0.0,54.9,211123,,,A*56
$GPGGA,095938.000,5148.3825,N,01021.8397,E,1,23,0.4,569.0,M,47.4,M,,*59
$GPVTG,54.9,T,,M,0.0,N,0.0,K,A*35
$GPGSV,3,1,09,05,37,304,35,06,07,203,26,07,71,091,30,09,32,090,30*7E
$GPGSV,3,2,09,11,26,231,37,13,20,268,33,14,08,160,35,20,64,259,31*7D
$GPGSV,3,3,09,30,63,193,33*4D
$GLGSV,2,1,07,65,33,304,28,71,32,103,29,73,42,047,30,74,59,124,29*60
$GLGSV,2,2,07,75,19,178,32,81,17,340,29,88,23,285,33*5A
$GAGSV,1,1,04,112,27,308,27,119,26,275,24,127,24,142,32,130,36,081,28*6E
$BDGSV,3,1,09,207,12,076,27,209,18,058,29,210,12,091,31,214,76,128,31*60
$BDGSV,3,2,09,224,50,160,43,225,07,199,12,226,49,072,28,227,11,304,31*67
$BDGSV,3,3,09,233,80,279,34*60
$GPGSA,A,3,07,20,30,05,11,13,14,06,,,,,0.8,0.4,0.6*3A
$GNGSA,A,3,65,71,73,74,75,81,,,,,,,0.8,0.4,0.6*2F
$GAGSA,A,3,112,119,127,,,,,,,,,,0.8,0.4,0.6*16
$BDGSA,A,3,207,209,210,214,224,226,,,,,,,0.8,0.4,0.6*21
$GPRMC,095938.000,A,5148.3825,N,01021.8397,E,0.0,54.9,211123,,,A*59
$GPGGA,095939.000,5148.3825,N,01021.8397,E,1,21,0.4,569.0,M,47.4,M,,*5A
$GPVTG,54.9,T,,M,0.0,N,0.0,K,A*35
$GPGSV,3,1,09,05,37,304,35,06,07,203,25,07,71,091,30,09,32,090,29*75
$GPGSV,3,2,09,11,26,231,37,13,20,268,32,14,08,160,35,20,64,259,30*7D
$GPGSV,3,3,09,30,63,193,32*4C
$GLGSV,2,1,07,65,33,304,28,71,32,103,32,73,42,047,30,74,59,124,29*6A
$GLGSV,2,2,07,75,19,178,32,81,17,340,28,88,23,285,33*5B
$GAGSV,1,1,04,112,27,308,27,119,26,275,23,127,24,142,32,130,36,081,28*69
$BDGSV,2,1,08,207,12,076,27,209,18,058,29,210,12,091,31,214,76,128,31*60
$BDGSV,2,2,08,224,50,160,43,226,49,072,27,227,11,304,30,233,80,279,34*68
$GPGSA,A,3,07,20,30,05,09,11,13,14,,,,,1.0,0.4,0.8*32
$GNGSA,A,3,65,71,73,74,75,81,,,,,,,1.0,0.4,0.8*28
$GAGSA,A,3,112,119,127,,,,,,,,,,1.0,0.4,0.8*11
$BDGSA,A,3,209,214,224,226,,,,,,,,,1.0,0.4,0.8*20
$GPRMC,095939.000,A,5148.3825,N,01021.8397,E,0.0,54.9,211123,,,A*58
$GPGGA,095940.000,5148.3825,N,01021.8397,E,1,21,0.6,569.0,M,47.4,M,,*56
$GPVTG,54.9,T,,M,0.0,N,0.0,K,A*35
$GPGSV,3,1,09,05,37,304,34,06,07,203,25,07,71,091,36,09,32,090,29*72
$GPGSV,3,2,09,11,26,231,37,13,20,268,32,14,08,160,35,20,64,259,30*7D
$GPGSV,3,3,09,30,63,193,32*4C
$GLGSV,2,1,07,65,33,304,27,71,32,103,37,73,42,047,30,74,59,124,29*60
$GLGSV,2,2,07,75,19,178,33,81,17,340,28,88,23,285,33*5A
$GAGSV,1,1,04,112,27,308,27,119,26,275,23,127,24,142,32,130,36,081,29*68
$BDGSV,2,1,08,207,12,076,27,209,18,058,29,210,12,091,30,214,76,128,31*61
$BDGSV,2,2,08,224,50,160,43,226,49,072,31,227,11,304,30,233,80,279,34*6F
$GPGSA,A,3,07,20,30,05,09,11,13,14,,,,,1.0,0.6,0.8*30
$GNGSA,A,3,71,73,74,75,,,,,,,,,1.0,0.6,0.8*20
$GAGSA,A,3,112,119,127,,,,,,,,,,1.0,0.6,0.8*13
$BDGSA,A,3,207,209,210,214,224,226,,,,,,,1.0,0.6,0.8*24
$GPRMC,095940.000,A,5148.3825,N,01021.8397,E,0.0,54.9,211123,,,A*56
$GPGGA,095941.000,5148.3825,N,01021.8397,E,1,20,0.6,569.0,M,47.4,M,,*56
$GPVTG,54.9,T,,M,0.0,N,0.0,K,A*35
$GPGSV,3,1,09,05,37,304,33,06,07,203,25,07,71,091,38,09,32,090,30*73
$GPGSV,3,2,09,11,26,231,37,13,20,268,32,14,08,160,35,20,64,259,30*7D
$GPGSV,3,3,09,30,63,193,41*48
$GLGSV,2,1,07,65,33,304,27,71,32,103,37,73,42,047,30,74,59,124,29*60
$GLGSV,2,2,07,75,19,178,33,81,17,340,28,88,23,285,33*5A
$GAGSV,1,1,04,112,27,308,27,119,26,275,23,127,24,142,32,130,36,081,34*64
$BDGSV,2,1,08,207,12,076,27,209,18,058,29,210,12,091,29,214,76,128,30*68
$BDGSV,2,2,08,224,50,160,43,226,49,072,35,227,11,304,29,233,80,279,33*64
$GPGSA,A,3,07,20,30,05,09,11,13,14,,,,,1.0,0.6,0.8*30
$GNGSA,A,3,65,71,73,74,81,,,,,,,,1.0,0.6,0.8*28
$GAGSA,A,3,112,127,,,,,,,,,,,1.0,0.6,0.8*2A
$BDGSA,A,3,207,209,210,224,226,,,,,,,,1.0,0.6,0.8*13
$GPRMC,095941.000,A,5148.3825,N,01021.8397,E,0.0,54.9,211123,,,A*57
$GPGGA,095942.000,5148.3825,N,01021.8397,E,1,24,0.4,569.0,M,47.4,M,,*53
$GPVTG,54.9,T,,M,0.0,N,0.0,K,A*35
$GPGSV,3,1,09,05,37,304,33,06,07,203,25,07,71,091,38,09,32,090,33*70
$GPGSV,3,2,09,11,26,231,36,13,20,268,31,14,08,160,35,20,64,259,29*77
$GPGSV,3,3,09,30,63,193,41*48
$GLGSV,2,1,07,65,33,304,29,71,32,103,37,73,42,047,30,74,59,124,29*6E
$GLGSV,2,2,07,75,19,178,33,81,17,340,28,88,23,285,33*5A
$GAGSV,1,1,04,112,27,308,26,119,26,275,23,127,24,142,32,130,36,081,34*65
$BDGSV,2,1,08,207,12,076,27,209,18,058,28,210,12,091,29,214,76,128,29*61
$BDGSV,2,2,08,224,50,160,43,226,49,072,35,227,11,304,29,233,80,279,32*65
$GPGSA,A,3,07,20,30,05,09,11,13,14,06,,,,0.8,0.4,0.8*3D
$GNGSA,A,3,65,71,73,74,75,81,,,,,,,0.8,0.4,0.8*21
$GAGSA,A,3,112,119,127,130,,,,,,,,,0.8,0.4,0.8*2A
$BDGSA,A,3,207,209,210,224,226,,,,,,,,0.8,0.4,0.8*18
$GPRMC,095942.000,A,5148.3825,N,01021.8397,E,0.0,54.9,211123,,,A*54
$GPGGA,095943.000,5148.3825,N,01021.8397,E,1,23,0.4,569.0,M,47.4,M,,*55
$GPVTG,54.9,T,,M,0.0,N,0.0,K,A*35
$GPGSV,3,1,09,05,37,304,32,06,07,203,25,07,71,091,38,09,32,090,34*76
$GPGSV,3,2,09,11,26,231,35,13,20,268,30,14,08,160,35,20,64,259,29*75
$GPGSV,3,3,09,30,63,193,41*48
$GLGSV,2,1,07,65,33,304,29,71,32,103,37,73,42,047,30,74,59,124,29*6E
$GLGSV,2,2,07,75,19,178,33,81,17,340,28,88,23,285,32*5B
$GAGSV,2,1,05,110,15,330,26,112,27,308,26,119,26,275,21,127,24,142,33*6D
$GAGSV,2,2,05,130,36,081,34*64
$BDGSV,2,1,08,207,12,076,27,209,18,058,28,210,12,091,29,214,76,128,28*60
$BDGSV,2,2,08,224,50,160,43,226,49,072,35,227,11,304,28,233,80,279,32*64
$GPGSA,A,3,07,20,30,05,09,11,13,14,06,,,,1.0,0.4,0.8*34
$GNGSA,A,3,65,71,73,74,75,81,,,,,,,1.0,0.4,0.8*28
$GAGSA,A,3,112,127,130,,,,,,,,,,1.0,0.4,0.8*1A
$BDGSA,A,3,207,209,210,224,226,,,,,,,,1.0,0.4,0.8*11
$GPRMC,095943.000,A,5148.3825,N,01021.8397,E,0.0,54.9,211123,,,A*55
$GPGGA,095944.000,5148.3826,N,01021.8400,E,1,22,0.4,569.3,M,47.4,M,,*5A
$GPVTG,49.4,T,,M,1.7,N,3.2,K,A*33
$GPGSV,3,1,09,05,37,304,32,06,07,203,25,07,71,091,38,09,32,090,35*77
$GPGSV,3,2,09,11,26,231,35,13,20,268,30,14,08,160,35,20,64,259,34*79
$GPGSV,3,3,09,30,63,193,41*48
$GLGSV,2,1,08,65,33,304,29,71,32,103,37,72,76,042,26,73,42,047,30*64
$GLGSV,2,2,08,74,59,124,29,75,19,178,33,81,17,340,29,88,23,285,32*66
$GAGSV,2,1,05,110,15,330,26,112,27,308,26,119,26,275,20,127,24,142,33*6C
$GAGSV,2,2,05,130,36,081,34*64
$BDGSV,2,1,08,207,12,076,26,209,18,058,26,210,12,091,29,214,76,128,27*60
$BDGSV,2,2,08,224,50,160,43,226,49,072,35,227,11,304,28,233,80,279,31*67
$GPGSA,A,3,07,20,30,05,09,11,13,14,06,,,,1.0,0.4,0.8*34
$GNGSA,A,3,71,73,74,75,81,88,,,,,,,1.0,0.4,0.8*2B
$GAGSA,A,3,110,112,127,,,,,,,,,,1.0,0.4,0.8*18
$BDGSA,A,3,210,214,224,226,,,,,,,,,1.0,0.4,0.8*28
$GPRMC,095944.000,A,5148.3826,N,01021.8400,E,1.7,49.4,211123,,,A*5F
$GPGGA,095945.000,5148.3830,N,01021.8406,E,1,23,0.4,569.6,M,47.4,M,,*5E
$GPVTG,43.3,T,,M,3.1,N,5.7,K,A*39
$GPGSV,3,1,09,05,37,304,32,06,07,203,25,07,70,091,37,09,32,090,35*79
$GPGSV,3,2,09,11,26,231,35,13,20,268,30,14,08,160,35,20,64,259,33*7E
$GPGSV,3,3,09,30,63,193,41*48
$GLGSV,2,1,08,65,33,304,29,71,32,103,37,72,76,042,30,73,42,047,30*63
$GLGSV,2,2,08,74,59,124,29,75,19,178,33,81,17,340,29,88,23,285,32*66
$GAGSV,2,1,05,110,15,330,26,112,27,308,26,119,26,275,18,127,24,142,33*67
$GAGSV,2,2,05,130,36,081,35*65
$BDGSV,2,1,08,207,13,076,26,209,18,058,25,210,12,091,28,214,76,128,27*63
$BDGSV,2,2,08,224,50,160,42,226,49,072,35,227,11,304,27,233,80,279,31*69
$GPGSA,A,3,07,20,30,05,09,11,13,14,06,,,,0.8,0.4,0.6*33
$GNGSA,A,3,71,73,74,75,81,88,,,,,,,0.8,0.4,0.6*2C
$GAGSA,A,3,110,112,127,,,,,,,,,,0.8,0.4,0.6*1F
$BDGSA,A,3,207,210,214,224,226,,,,,,,,0.8,0.4,0.6*1A
$GPRMC,095945.000,A,5148.3830,N,01021.8406,E,3.1,43.3,211123,,,A*56
$GPGGA,095946.000,5148.3840,N,01021.8420,E,1,24,0.4,569.5,M,47.4,M,,*5A
$GPVTG,46.6,T,,M,5.9,N,10.9,K,A*0D
$GPGSV,3,1,09,05,37,304,32,06,07,203,25,07,70,091,37,09,32,090,34*78
$GPGSV,3,2,09,11,26,230,34,13,20,268,29,14,08,160,35,20,64,259,33*76
$GPGSV,3,3,09,30,63,193,41*48
$GLGSV,2,1,08,65,33,304,30,71,31,103,37,72,76,044,33,73,41,046,30*6F
$GLGSV,2,2,08,74,59,123,29,75,19,178,33,81,17,340,29,88,22,285,32*60
$GAGSV,2,1,05,110,15,330,28,112,27,308,26,119,26,275,17,127,24,142,33*66
$GAGSV,2,2,05,130,36,081,36*66
$BDGSV,2,1,08,207,13,076,26,209,18,058,23,210,12,091,28,214,76,128,27*65
$BDGSV,2,2,08,224,50,160,42,226,49,072,35,227,11,304,27,233,80,279,31*69
$GPGSA,A,3,07,20,30,05,09,11,13,14,06,,,,0.8,0.4,0.6*33
$GNGSA,A,3,71,72,73,74,75,81,88,,,,,,0.8,0.4,0.6*29
$GAGSA,A,3,110,112,127,,,,,,,,,,0.8,0.4,0.6*1F
$BDGSA,A,3,207,210,214,224,226,,,,,,,,0.8,0.4,0.6*1A
$GPRMC,095946.000,A,5148.3840,N,01021.8420,E,5.9,46.6,211123,,,A*58
$GPGGA,095947.000,5148.3855,N,01021.8443,E,1,24,0.4,569.4,M,47.4,M,,*5B
$GPVTG,47.9,T,,M,8.4,N,15.5,K,A*0A
$GPGSV,3,1,09,05,37,304,32,06,07,203,25,07,70,091,37,09,32,090,34*78
$GPGSV,3,2,09,11,26,230,34,13,20,268,29,14,08,160,35,20,64,259,33*76
$GPGSV,3,3,09,30,63,193,41*48
$GLGSV,2,1,08,65,33,304,30,71,31,103,37,72,76,044,34,73,41,046,29*60
$GLGSV,2,2,08,74,59,123,29,75,19,178,33,81,17,340,34,88,22,285,32*6C
$GAGSV,2,1,05,110,15,330,28,112,27,308,26,119,26,275,15,127,24,142,33*64
$GAGSV,2,2,05,130,36,081,36*66
$BDGSV,2,1,08,207,13,076,26,209,18,058,22,210,12,091,28,214,76,128,27*64
$BDGSV,2,2,08,224,50,160,42,226,49,072,35,227,11,304,27,233,80,279,30*68
$GPGSA,A,3,07,20,30,05,09,11,13,14,06,,,,0.8,0.4,0.6*33
$GNGSA,A,3,71,72,73,74,75,81,88,,,,,,0.8,0.4,0.6*29
$GAGSA,A,3,110,112,127,,,,,,,,,,0.8,0.4,0.6*1F
$BDGSA,A,3,207,210,214,224,226,,,,,,,,0.8,0.4,0.6*1A
$GPRMC,095947.000,A,5148.3855,N,01021.8443,E,8.4,47.9,211123,,,A*56
$GPGGA,095948.000,5148.3874,N,01021.8480,E,1,23,0.4,568.8,M,47.4,M,,*52
$GPVTG,47.1,T,,M,10.0,N,18.6,K,A*31
$GPGSV,3,1,09,05,37,304,32,06,07,203,25,07,70,091,37,09,32,090,34*78
$GPGSV,3,2,09,11,26,230,34,13,20,268,29,14,08,160,35,20,64,259,33*76
$GPGSV,3,3,09,30,63,193,41*48
$GLGSV,2,1,08,65,33,304,30,71,31,103,37,72,76,044,34,73,41,046,30*68
$GLGSV,2,2,08,74,59,123,28,75,19,178,33,81,17,340,34,88,22,285,32*6D
$GAGSV,2,1,05,110,15,330,28,112,27,308,25,119,26,275,14,127,24,142,33*66
$GAGSV,2,2,05,130,36,081,36*66
$BDGSV,2,1,08,207,13,076,26,209,18,058,20,210,12,091,28,214,76,128,26*67
$BDGSV,2,2,08,224,50,160,42,226,49,072,35,227,11,304,27,233,80,279,33*6B
$GPGSA,A,3,07,20,30,05,09,11,13,14,06,,,,0.8,0.4,0.6*33
$GNGSA,A,3,71,72,73,75,81,88,,,,,,,0.8,0.4,0.6*2A
$GAGSA,A,3,110,112,127,,,,,,,,,,0.8,0.4,0.6*1F
$BDGSA,A,3,207,210,214,224,226,,,,,,,,0.8,0.4,0.6*1A
$GPRMC,095948.000,A,5148.3874,N,01021.8480,E,10.0,47.1,211123,,,A*60
$GPGGA,095949.000,5148.3900,N,01021.8532,E,1,23,0.4,569.7,M,47.4,M,,*57
$GPVTG,49.0,T,,M,14.1,N,26.1,K,A*31
$GPGSV,3,1,09,05,37,304,32,06,07,203,25,07,70,091,37,09,32,090,34*78
$GPGSV,3,2,09,11,26,230,34,13,20,268,29,14,08,160,34,20,64,259,33*77
$GPGSV,3,3,09,30,63,193,41*48
$GLGSV,2,1,08,65,33,304,30,71,31,103,37,72,76,044,34,73,41,046,30*68
$GLGSV,2,2,08,74,59,123,26,75,19,178,33,81,17,340,34,88,22,285,32*63
$GAGSV,2,1,05,110,15,330,28,112,27,308,25,119,26,275,14,127,24,142,33*66
$GAGSV,2,2,05,130,36,081,36*66
$BDGSV,2,1,08,207,13,076,26,209,18,058,19,210,12,091,28,214,76,128,26*6D
$BDGSV,2,2,08,224,50,160,42,226,49,072,35,227,11,304,27,233,80,279,34*6C
$GPGSA,A,3,07,20,30,05,09,11,13,14,06,,,,0.8,0.4,0.6*33
$GNGSA,A,3,65,71,72,73,75,81,,,,,,,0.8,0.4,0.6*29
$GAGSA,A,3,110,112,127,,,,,,,,,,0.8,0.4,0.6*1F
$BDGSA,A,3,207,210,214,224,226,,,,,,,,0.8,0.4,0.6*1A
$GPRMC,095949.000,A,5148.3900,N,01021.8532,E,14.1,49.0,211123,,,A*61
$GPGGA,095950.000,5148.3927,N,01021.8590,E,1,23,0.4,570.6,M,47.4,M,,*5B
$GPVTG,50.5,T,,M,15.6,N,28.8,K,A*3D
$GPGSV,3,1,09,05,37,304,32,06,07,203,25,07,70,091,37,09,32,090,34*78
$GPGSV,3,2,09,11,26,230,34,13,20,268,28,14,08,160,34,20,64,259,33*76
$GPGSV,3,3,09,30,63,193,40*49
$GLGSV,2,1,08,65,33,304,30,71,31,103,36,72,76,044,33,73,41,046,30*6E
$GLGSV,2,2,08,74,59,123,25,75,19,178,33,81,17,340,34,88,22,285,32*60
$GAGSV,2,1,05,110,15,330,28,112,27,308,25,119,26,275,13,127,24,142,34*66
$GAGSV,2,2,05,130,36,081,36*66
$BDGSV,2,1,08,207,13,076,26,209,18,058,17,210,12,091,27,214,76,128,26*6C
$BDGSV,2,2,08,224,51,159,41,226,49,071,35,227,11,304,27,233,80,279,34*67
$GPGSA,A,3,07,20,30,05,09,11,13,14,06,,,,0.8,0.4,0.8*3D
$GNGSA,A,3,65,71,72,73,75,81,88,,,,,,0.8,0.4,0.8*27
$GAGSA,A,3,110,112,127,,,,,,,,,,0.8,0.4,0.8*11
$BDGSA,A,3,207,214,224,226,,,,,,,,,0.8,0.4,0.8*27
$GPRMC,095950.000,A,5148.3927,N,01021.8590,E,15.6,50.5,211123,,,A*6F
$GPGGA,095951.000,5148.3962,N,01021.8647,E,1,24,0.4,570.9,M,47.4,M,,*5A
$GPVTG,53.0,T,,M,17.8,N,33.0,K,A*35
$GPGSV,3,1,09,05,37,304,39,06,07,203,25,07,70,091,36,09,32,090,34*72
$GPGSV,3,2,09,11,26,230,34,13,20,268,28,14,08,160,37,20,64,259,33*75
$GPGSV,3,3,09,30,63,193,39*47
$GLGSV,2,1,08,65,33,304,36,71,31,103,36,72,76,044,33,73,41,046,29*60
$GLGSV,2,2,08,74,59,123,23,75,19,178,33,81,17,340,35,88,22,285,32*67
$GAGSV,2,1,05,110,15,330,29,112,27,308,25,119,26,275,12,127,24,142,34*66
$GAGSV,2,2,05,130,36,081,36*66
$BDGSV,2,1,08,207,13,076,26,209,18,058,16,210,12,091,27,214,76,128,26*6D
$BDGSV,2,2,08,224,51,159,41,226,49,071,35,227,11,304,34,233,80,279,34*65
$GPGSA,A,3,07,20,30,05,09,11,13,14,06,,,,0.8,0.4,0.6*33
$GNGSA,A,3,65,71,72,73,75,81,88,,,,,,0.8,0.4,0.6*29
$GAGSA,A,3,110,112,127,,,,,,,,,,0.8,0.4,0.6*1F
$BDGSA,A,3,207,210,214,224,226,,,,,,,,0.8,0.4,0.6*1A
$GPRMC,095951.000,A,5148.3962,N,01021.8647,E,17.8,53.0,211123,,,A*6C
$GPGGA,095952.000,5148.3996,N,01021.8714,E,1,24,0.4,571.2,M,47.4,M,,*5F
$GPVTG,51.1,T,,M,20.4,N,37.8,K,A*32
$GPGSV,3,1,09,05,37,304,47,06,07,203,26,07,70,091,36,09,32,090,34*78
$GPGSV,3,2,09,11,26,230,34,13,20,268,28,14,08,160,38,20,64,259,33*7A
$GPGSV,3,3,09,30,64,192,39*41
$GLGSV,2,1,08,65,33,304,44,71,31,103,36,72,76,044,33,73,41,046,29*65
$GLGSV,2,2,08,74,59,123,22,75,19,178,34,81,17,340,36,88,22,285,32*62
$GAGSV,1,1,04,110,15,330,36,112,27,308,31,127,24,142,34,130,36,081,36*6A
$BDGSV,2,1,08,207,13,076,26,209,18,058,14,210,12,091,27,214,76,128,26*6F
$BDGSV,2,2,08,224,51,159,41,226,49,071,34,227,11,304,34,233,80,279,34*64
$GPGSA,A,3,07,20,30,05,09,11,13,14,06,,,,0.8,0.4,0.6*33
$GNGSA,A,3,65,71,72,73,75,81,88,,,,,,0.8,0.4,0.6*29
$GAGSA,A,3,110,112,127,,,,,,,,,,0.8,0.4,0.6*1F
$BDGSA,A,3,207,210,214,224,226,,,,,,,,0.8,0.4,0.6*1A
$GPRMC,095952.000,A,5148.3996,N,01021.8714,E,20.4,51.1,211123,,,A*68
$GPGGA,095953.000,5148.4033,N,01021.8791,E,1,24,0.4,572.1,M,47.4,M,,*52
$GPVTG,51.6,T,,M,21.9,N,40.6,K,A*37
$GPGSV,3,1,09,05,37,304,48,06,07,203,26,07,70,091,36,09,32,090,34*77
$GPGSV,3,2,09,11,26,230,34,13,20,268,28,14,08,160,38,20,64,259,32*7B
$GPGSV,3,3,09,30,64,192,38*40
$GLGSV,2,1,08,65,33,304,45,71,31,103,36,72,76,044,33,73,41,046,29*64
$GLGSV,2,2,08,74,59,123,20,75,19,178,34,81,17,340,36,88,22,285,32*60
$GAGSV,1,1,04,110,15,330,36,112,27,308,33,127,24,142,33,130,36,081,36*6F
$BDGSV,2,1,08,207,13,076,26,209,18,058,13,210,12,091,35,214,76,128,27*6A
$BDGSV,2,2,08,224,51,159,41,226,49,071,33,227,11,304,34,233,80,279,33*64
$GPGSA,A,3,07,20,30,05,09,11,13,14,06,,,,0.8,0.4,0.6*33
$GNGSA,A,3,65,71,72,73,75,81,88,,,,,,0.8,0.4,0.6*29
$GAGSA,A,3,110,112,127,,,,,,,,,,0.8,0.4,0.6*1F
$BDGSA,A,3,207,210,214,224,226,,,,,,,,0.8,0.4,0.6*1A
$GPRMC,095953.000,A,5148.4033,N,01021.8791,E,21.9,51.6,211123,,,A*6E
$GPGGA,095954.000,5148.4075,N,01021.8876,E,1,22,0.4,572.0,M,47.4,M,,*56
$GPVTG,52.3,T,,M,23.2,N,42.9,K,A*35
$GPGSV,3,1,09,05,37,304,48,06,07,203,27,07,70,091,35,09,32,090,34*75
$GPGSV,3,2,09,11,26,230,34,13,20,268,33,14,08,160,37,20,64,259,32*7E
$GPGSV,3,3,09,30,64,192,38*40
$GLGSV,2,1,08,65,33,304,45,71,31,103,35,72,76,044,33,73,41,046,29*67
$GLGSV,2,2,08,74,59,123,19,75,19,178,34,81,17,340,42,88,22,285,32*69
$GAGSV,1,1,04,110,15,330,35,112,27,308,33,127,24,142,33,130,36,081,36*6C
$BDGSV,2,1,08,207,13,076,26,209,18,058,13,210,12,091,35,214,76,128,27*6A
$BDGSV,2,2,08,224,51,159,41,226,49,071,33,227,11,304,33,233,80,279,33*63
$GPGSA,A,3,07,20,30,05,09,11,13,06,,,,,0.8,0.4,0.8*38
$GNGSA,A,3,65,71,72,73,75,81,88,,,,,,0.8,0.4,0.8*27
$GAGSA,A,3,110,112,127,,,,,,,,,,0.8,0.4,0.8*11
$BDGSA,A,3,207,210,214,224,,,,,,,,,0.8,0.4,0.8*22
$GPRMC,095954.000,A,5148.4075,N,01021.8876,E,23.2,52.3,211123,,,A*62
$GPGGA,095955.000,5148.4119,N,01021.8962,E,1,24,0.4,572.7,M,47.4,M,,*59
$GPVTG,52.1,T,,M,25.0,N,46.2,K,A*3C
$GPGSV,3,1,09,05,37,304,49,06,07,203,27,07,70,091,34,09,32,090,34*75
$GPGSV,3,2,09,11,26,230,34,13,20,268,35,14,08,160,35,20,64,259,32*7A
$GPGSV,3,3,09,30,64,192,37*4F
$GLGSV,2,1,08,65,33,304,45,71,31,103,35,72,76,044,33,73,41,046,29*67
$GLGSV,2,2,08,74,59,123,17,75,19,178,37,81,17,340,42,88,22,285,32*64
$GAGSV,1,1,04,110,15,330,35,112,27,308,33,127,24,142,39,130,36,081,36*66
$BDGSV,2,1,08,207,13,076,26,209,18,058,12,210,12,091,35,214,76,128,27*6B
$BDGSV,2,2,08,224,51,159,41,226,49,071,32,227,11,304,33,233,80,279,33*62
$GPGSA,A,3,07,20,30,05,09,11,13,06,,,,,0.8,0.4,0.8*38
$GNGSA,A,3,65,71,72,73,75,81,88,,,,,,0.8,0.4,0.8*27
$GAGSA,A,3,110,112,127,130,,,,,,,,,0.8,0.4,0.8*23
$BDGSA,A,3,207,210,214,224,226,,,,,,,,0.8,0.4,0.8*14
$GPRMC,095955.000,A,5148.4119,N,01021.8962,E,25.0,52.1,211123,,,A*6A
$GPGGA,095956.000,5148.4159,N,01021.9058,E,1,23,0.4,572.7,M,47.4,M,,*58
$GPVTG,55.2,T,,M,25.6,N,47.3,K,A*3E
$GPGSV,3,1,09,05,37,304,49,06,07,203,27,07,70,091,34,09,32,090,34*75
$GPGSV,3,2,09,11,26,230,34,13,20,268,35,14,08,160,34,20,64,259,31*78
$GPGSV,3,3,09,30,64,192,37*4F
$GLGSV,2,1,08,65,33,304,45,71,31,103,35,72,76,044,33,73,41,046,29*67
$GLGSV,2,2,08,74,59,123,16,75,19,178,41,81,17,340,42,88,22,285,32*64
$GAGSV,1,1,04,110,15,330,34,112,27,308,33,127,24,142,40,130,36,081,36*69
$BDGSV,2,1,07,207,13,076,26,210,12,091,35,214,76,128,27,224,51,159,41*60
$BDGSV,2,2,07,226,49,071,31,227,11,304,33,233,80,279,33*66
$GPGSA,A,3,07,20,30,05,09,11,13,,,,,,1.0,0.4,0.8*37
$GNGSA,A,3,65,71,72,73,75,81,88,,,,,,1.0,0.4,0.8*2E
$GAGSA,A,3,110,112,127,130,,,,,,,,,1.0,0.4,0.8*2A
$BDGSA,A,3,207,210,214,224,226,,,,,,,,1.0,0.4,0.8*1D
$GPRMC,095956.000,A,5148.4159,N,01021.9058,E,25.6,55.2,211123,,,A*6E
$GPGGA,095957.000,5148.4200,N,01021.9156,E,1,24,0.4,572.9,M,47.4,M,,*50
$GPVTG,57.5,T,,M,26.6,N,49.2,K,A*37
$GPGSV,3,1,09,05,37,304,49,06,07,203,27,07,70,091,33,09,32,090,34*72
$GPGSV,3,2,09,11,26,230,33,13,20,268,35,14,08,160,41,20,64,259,31*7D
$GPGSV,3,3,09,30,64,192,36*4E
$GLGSV,2,1,08,65,33,304,44,71,31,103,35,72,76,044,33,73,41,046,29*66
$GLGSV,2,2,08,74,59,123,14,75,19,178,41,81,17,340,42,88,22,285,32*66
$GAGSV,1,1,04,110,15,330,36,112,27,308,33,127,24,142,40,130,36,081,36*6B
$BDGSV,2,1,07,207,13,076,26,210,12,091,34,214,76,128,27,224,51,159,41*61
$BDGSV,2,2,07,226,49,071,31,227,11,304,33,233,80,279,33*66
$GPGSA,A,3,07,20,30,05,09,11,13,06,,,,,0.8,0.4,0.8*38
$GNGSA,A,3,65,71,72,73,75,81,88,,,,,,0.8,0.4,0.8*27
$GAGSA,A,3,110,112,127,130,,,,,,,,,0.8,0.4,0.8*23
$BDGSA,A,3,207,210,214,224,226,,,,,,,,0.8,0.4,0.8*14
$GPRMC,095957.000,A,5148.4200,N,01021.9156,E,26.6,57.5,211123,,,A*69
$GPGGA,095958.000,5148.4240,N,01021.9261,E,1,24,0.4,572.9,M,47.4,M,,*5C
$GPVTG,59.1,T,,M,27.1,N,50.3,K,A*32
$GPGSV,3,1,09,05,37,304,49,06,07,203,31,07,70,091,32,09,32,090,34*74
$GPGSV,3,2,09,11,26,230,33,13,20,268,37,14,08,160,41,20,64,259,31*7F
$GPGSV,3,3,09,30,64,192,36*4E
$GLGSV,2,1,08,65,33,304,44,71,31,103,34,72,76,044,33,73,41,046,29*67
$GLGSV,2,2,08,74,59,123,13,75,19,178,41,81,17,340,41,88,22,285,32*62
$GAGSV,1,1,04,110,15,330,39,112,27,308,33,127,24,142,40,130,36,081,36*64
$BDGSV,2,1,07,207,13,076,27,210,12,091,34,214,76,128,27,224,51,159,40*61
$BDGSV,2,2,07,226,49,071,32,227,11,304,33,233,80,279,33*65
$GPGSA,A,3,07,20,30,05,09,11,13,14,06,,,,0.8,0.4,0.6*33
$GNGSA,A,3,65,71,72,73,75,81,88,,,,,,0.8,0.4,0.6*29
$GAGSA,A,3,110,112,127,,,,,,,,,,0.8,0.4,0.6*1F
$BDGSA,A,3,207,210,214,224,226,,,,,,,,0.8,0.4,0.6*1A
$GPRMC,095958.000,A,5148.4240,N,01021.9261,E,27.1,59.1,211123,,,A*69
$GPGGA,095959.000,5148.4280,N,01021.9373,E,1,24,0.4,573.1,M,47.4,M,,*5A
$GPVTG,59.6,T,,M,29.1,N,53.8,K,A*33
$GPGSV,3,1,09,05,37,304,49,06,07,203,33,07,70,091,32,09,32,090,34*76
$GPGSV,3,2,09,11,26,230,33,13,20,268,38,14,08,160,41,20,64,259,31*70
$GPGSV,3,3,09,30,64,192,36*4E
$GLGSV,2,1,08,65,33,304,44,71,31,103,34,72,76,044,33,73,41,046,29*67
$GLGSV,2,2,08,74,59,123,13,75,19,178,41,81,17,340,41,88,22,285,33*63
$GAGSV,1,1,04,110,15,330,39,112,27,308,33,127,24,142,40,130,36,081,36*64
$BDGSV,2,1,07,207,13,076,27,210,12,091,34,214,76,128,27,224,51,159,40*61
$BDGSV,2,2,07,226,49,071,32,227,11,304,33,233,80,279,33*65
$GPGSA,A,3,07,20,30,05,09,11,13,14,06,,,,0.8,0.4,0.6*33
$GNGSA,A,3,65,71,72,73,75,81,88,,,,,,0.8,0.4,0.6*29
$GAGSA,A,3,110,112,127,,,,,,,,,,0.8,0.4,0.6*1F
$BDGSA,A,3,207,210,214,224,226,,,,,,,,0.8,0.4,0.6*1A
$GPRMC,095959.000,A,5148.4280,N,01021.9373,E,29.1,59.6,211123,,,A*6F
$GPGGA,100000.000,5148.4319,N,01021.9489,E,1,24,0.4,573.3,M,47.4,M,,*53
$GPVTG,60.0,T,,M,29.1,N,54.0,K,A*30
$GPGSV,3,1,09,05,37,304,48,06,07,203,34,07,70,091,31,09,32,090,34*73
$GPGSV,3,2,09,11,26,230,32,13,20,268,38,14,08,160,41,20,64,259,31*71
$GPGSV,3,3,09,30,64,192,35*4D
$GLGSV,2,1,08,65,33,304,44,71,31,103,34,72,76,044,32,73,41,046,30*6E
$GLGSV,2,2,08,74,59,123,12,75,19,178,41,81,17,340,41,88,22,285,34*65
$GAGSV,1,1,04,110,15,330,39,112,27,308,33,127,24,142,40,130,36,081,35*67
$BDGSV,2,1,08,205,15,125,34,207,13,076,27,210,12,091,33,214,76,128,26*63
$BDGSV,2,2,08,224,51,159,40,226,49,071,32,227,11,304,33,233,80,279,33*63
$GPGSA,A,3,07,20,30,05,09,11,13,14,06,,,,0.8,0.4,0.6*33
$GNGSA,A,3,65,71,72,73,75,81,88,,,,,,0.8,0.4,0.6*29
$GAGSA,A,3,110,112,127,,,,,,,,,,0.8,0.4,0.6*1F
$BDGSA,A,3,207,210,214,224,226,,,,,,,,0.8,0.4,0.6*1A
$GPRMC,100000.000,A,5148.4319,N,01021.9489,E,29.1,60.0,211123,,,A*68
$GPGGA,100001.000,5148.4359,N,01021.9607,E,1,24,0.4,573.5,M,47.4,M,,*54
$GPVTG,62.1,T,,M,30.3,N,56.2,K,A*39
$GPGSV,3,1,09,05,37,304,48,06,07,203,34,07,70,091,31,09,32,090,34*73
$GPGSV,3,2,09,11,26,230,32,13,20,268,38,14,08,160,41,20,64,259,31*71
$GPGSV,3,3,09,30,64,192,35*4D
$GLGSV,2,1,07,65,33,304,44,71,31,103,34,72,76,044,32,73,41,046,30*61
$GLGSV,2,2,07,75,19,178,41,81,17,340,41,88,22,285,36*54
$GAGSV,1,1,04,110,15,330,38,112,27,308,33,127,24,142,40,130,36,081,34*67
$BDGSV,2,1,08,205,15,125,35,207,13,076,27,210,12,091,32,214,76,128,26*63
$BDGSV,2,2,08,224,51,159,40,226,49,071,32,227,11,304,33,233,80,279,33*63
$GPGSA,A,3,07,20,30,05,09,11,13,14,06,,,,0.8,0.4,0.6*33
$GNGSA,A,3,71,72,73,75,81,88,,,,,,,0.8,0.4,0.6*2A
$GAGSA,A,3,110,112,127,,,,,,,,,,0.8,0.4,0.6*1F
$BDGSA,A,3,205,207,210,214,224,226,,,,,,,0.8,0.4,0.6*2D
$GPRMC,100001.000,A,5148.4359,N,01021.9607,E,30.3,62.1,211123,,,A*60
$GPGGA,100002.000,5148.4396,N,01021.9726,E,1,24,0.4,575.0,M,47.4,M,,*55
$GPVTG,63.8,T,,M,31.5,N,58.3,K,A*39
$GPGSV,3,1,09,05,37,304,47,06,07,203,35,07,70,091,31,09,32,090,34*7D
$GPGSV,3,2,09,11,26,230,32,13,20,268,38,14,08,160,41,20,64,259,36*76
$GPGSV,3,3,09,30,64,192,35*4D
$GLGSV,2,1,07,65,33,304,44,71,31,103,34,72,76,044,32,73,41,046,30*61
$GLGSV,2,2,07,75,19,178,40,81,17,340,41,88,22,285,36*55
$GAGSV,1,1,04,110,15,330,37,112,27,308,32,127,24,142,39,130,36,081,34*67
$BDGSV,2,1,08,205,15,125,36,207,13,076,28,210,12,091,31,214,76,128,26*6C
$BDGSV,2,2,08,224,51,159,40,226,49,071,32,227,11,304,33,233,80,279,33*63
$GPGSA,A,3,07,20,30,05,09,11,13,14,06,,,,0.8,0.4,0.6*33
$GNGSA,A,3,71,72,73,75,81,88,,,,,,,0.8,0.4,0.6*2A
$GAGSA,A,3,110,112,127,,,,,,,,,,0.8,0.4,0.6*1F
$BDGSA,A,3,205,207,210,214,224,226,,,,,,,0.8,0.4,0.6*2D
$GPRMC,100002.000,A,5148.4396,N,01021.9726,E,31.5,63.8,211123,,,A*6D
$GPGGA,100003.000,5148.4434,N,01021.9855,E,1,24,0.4,575.9,M,47.4,M,,*59
$GPVTG,66.9,T,,M,32.2,N,59.6,K,A*3D
$GPGSV,3,1,09,05,37,304,47,06,07,203,36,07,70,091,30,09,32,090,33*78
$GPGSV,3,2,09,11,26,230,32,13,20,268,38,14,08,160,41,20,64,259,36*76
$GPGSV,3,3,09,30,64,192,35*4D
$GLGSV,2,1,07,65,33,304,44,71,31,103,34,72,76,044,32,73,41,046,30*61
$GLGSV,2,2,07,75,19,178,40,81,17,340,41,88,22,285,37*54
$GAGSV,1,1,04,110,15,330,37,112,27,308,32,127,24,142,39,130,36,081,33*60
$BDGSV,2,1,08,205,15,125,36,207,13,076,28,210,12,091,31,214,76,128,26*6C
$BDGSV,2,2,08,224,51,159,40,226,49,071,32,227,11,304,33,233,80,279,33*63
$GPGSA,A,3,07,20,30,05,09,11,13,14,06,,,,0.8,0.4,0.6*33
$GNGSA,A,3,71,72,73,75,81,88,,,,,,,0.8,0.4,0.6*2A
$GAGSA,A,3,110,112,127,,,,,,,,,,0.8,0.4,0.6*1F
$BDGSA,A,3,205,207,210,214,224,226,,,,,,,0.8,0.4,0.6*2D
$GPRMC,100003.000,A,5148.4434,N,01021.9855,E,32.2,66.9,211123,,,A*68
$GPGGA,100004.000,5148.4468,N,01021.9996,E,1,24,0.4,576.7,M,47.4,M,,*54
$GPVTG,70.1,T,,M,33.6,N,62.3,K,A*3A
$GPGSV,3,1,09,05,37,304,46,06,07,203,36,07,70,091,30,09,32,090,33*79
$GPGSV,3,2,09,11,26,230,32,13,20,268,38,14,08,160,41,20,64,259,36*76
$GPGSV,3,3,09,30,64,192,35*4D
$GLGSV,2,1,07,65,33,304,44,71,31,103,33,72,76,044,32,73,41,046,30*66
$GLGSV,2,2,07,75,19,178,40,81,17,340,40,88,22,285,37*55
$GAGSV,1,1,04,110,15,330,36,112,27,308,32,127,24,142,39,130,36,081,33*61
$BDGSV,2,1,08,205,15,125,36,207,13,076,28,210,12,091,30,214,76,128,26*6D
$BDGSV,2,2,08,224,51,159,40,226,49,071,32,227,11,304,32,233,80,279,34*65
$GPGSA,A,3,07,20,30,05,09,11,13,14,06,,,,0.8,0.4,0.6*33
$GNGSA,A,3,71,72,73,75,81,88,,,,,,,0.8,0.4,0.6*2A
$GAGSA,A,3,110,112,127,,,,,,,,,,0.8,0.4,0.6*1F
$BDGSA,A,3,205,207,210,214,224,226,,,,,,,0.8,0.4,0.6*2D
$GPRMC,100004.000,A,5148.4468,N,01021.9996,E,33.6,70.1,211123,,,A*62
$GPGGA,100005.000,5148.4496,N,01022.0140,E,1,23,0.4,577.0,M,47.4,M,,*5C
$GPVTG,73.5,T,,M,33.7,N,62.4,K,A*3B
$GPGSV,3,1,09,05,37,304,45,06,07,203,36,07,70,091,30,09,32,090,33*7A
$GPGSV,3,2,09,11,26,230,37,13,20,268,38,14,08,160,41,20,64,259,35*70
$GPGSV,3,3,09,30,64,192,35*4D
$GLGSV,2,1,07,65,33,304,43,71,31,103,33,72,76,044,32,73,41,046,30*61
$GLGSV,2,2,07,75,19,178,39,81,17,340,39,88,22,285,37*55
$GAGSV,1,1,04,110,15,330,36,112,27,308,32,127,24,142,38,130,36,081,33*60
$BDGSV,2,1,08,205,15,125,35,207,13,076,28,210,12,091,30,214,76,128,26*6E
$BDGSV,2,2,08,224,51,159,40,226,49,071,32,227,11,304,32,233,80,279,34*65
$GPGSA,A,3,07,20,30,05,09,11,13,14,06,,,,0.8,0.4,0.6*33
$GNGSA,A,3,71,72,73,75,81,88,,,,,,,0.8,0.4,0.6*2A
$GAGSA,A,3,110,112,127,,,,,,,,,,0.8,0.4,0.6*1F
$BDGSA,A,3,207,210,214,224,226,,,,,,,,0.8,0.4,0.6*1A
$GPRMC,100005.000,A,5148.4496,N,01022.0140,E,33.7,73.5,211123,,,A*6D
$GPGGA,100006.000,5148.4523,N,01022.0294,E,1,24,0.4,576.7,M,47.4,M,,*5B
$GPVTG,75.0,T,,M,35.6,N,65.9,K,A*35
$GPGSV,3,1,09,05,37,304,45,06,07,203,36,07,70,091,29,09,32,090,33*72
$GPGSV,3,2,09,11,26,230,37,13,20,268,38,14,08,160,41,20,64,259,35*70
$GPGSV,3,3,09,30,64,192,35*4D
$GLGSV,2,1,07,65,33,304,43,71,31,103,33,72,76,044,31,73,41,046,30*62
$GLGSV,2,2,07,75,19,178,42,81,17,340,38,88,22,285,37*58
$GAGSV,1,1,04,110,15,330,35,112,27,308,32,127,24,142,38,130,36,081,32*62
$BDGSV,2,1,08,205,15,125,33,207,13,076,28,210,12,091,30,214,76,128,26*68
$BDGSV,2,2,08,224,51,159,40,226,49,071,32,227,11,304,32,233,80,279,34*65
$GPGSA,A,3,07,20,30,05,09,11,13,14,06,,,,0.8,0.4,0.6*33
$GNGSA,A,3,65,71,72,73,75,81,88,,,,,,0.8,0.4,0.6*29
$GAGSA,A,3,110,112,127,,,,,,,,,,0.8,0.4,0.6*1F
$BDGSA,A,3,207,210,214,224,226,,,,,,,,0.8,0.4,0.6*1A
$GPRMC,100006.000,A,5148.4523,N,01022.0294,E,35.6,75.0,211123,,,A*6F
$GPGGA,100007.000,5148.4551,N,01022.0456,E,1,24,0.4,576.8,M,47.4,M,,*58
$GPVTG,77.3,T,,M,37.0,N,68.5,K,A*31
$GPGSV,3,1,09,05,37,304,44,06,07,203,36,07,70,091,29,09,32,090,33*73
$GPGSV,3,2,09,11,26,230,36,13,20,268,38,14,08,160,41,20,64,259,34*70
$GPGSV,3,3,09,30,64,192,35*4D
$GLGSV,2,1,07,65,33,304,42,71,31,103,33,72,76,044,31,73,41,046,30*63
$GLGSV,2,2,07,75,19,178,45,81,17,340,38,88,22,285,38*50
$GAGSV,1,1,04,110,15,330,35,112,27,308,31,127,24,142,38,130,36,081,32*61
$BDGSV,2,1,08,205,15,125,32,207,13,076,28,210,12,091,30,214,76,128,26*69
$BDGSV,2,2,08,224,51,159,40,226,49,071,31,227,11,304,31,233,80,279,34*65
$GPGSA,A,3,07,20,30,05,09,11,13,14,06,,,,0.8,0.4,0.6*33
$GNGSA,A,3,65,71,72,73,75,81,88,,,,,,0.8,0.4,0.6*29
$GAGSA,A,3,110,112,127,,,,,,,,,,0.8,0.4,0.6*1F
$BDGSA,A,3,207,210,214,224,226,,,,,,,,0.8,0.4,0.6*1A
$GPRMC,100007.000,A,5148.4551,N,01022.0456,E,37.0,77.3,211123,,,A*66
$GPGGA,100008.000,5148.4573,N,01022.0622,E,1,23,0.4,576.7,M,47.4,M,,*5E
$GPVTG,79.0,T,,M,38.2,N,70.7,K,A*3A
$GPGSV,3,1,09,05,37,304,44,06,07,203,36,07,70,091,29,09,32,090,33*73
$GPGSV,3,2,09,11,26,230,36,13,20,268,38,14,08,160,41,20,64,259,34*70
$GPGSV,3,3,09,30,64,192,38*40
$GLGSV,2,1,07,65,33,304,42,71,31,103,33,72,76,044,30,73,41,046,31*63
$GLGSV,2,2,07,75,19,178,45,81,17,340,38,88,22,285,38*50
$GAGSV,1,1,04,110,15,330,34,112,27,308,31,127,24,142,37,130,36,081,31*6C
$BDGSV,2,1,08,205,15,125,30,207,13,076,28,210,12,091,30,214,76,128,26*6B
$BDGSV,2,2,08,224,51,159,39,226,49,071,31,227,11,304,31,233,80,279,34*6B
$GPGSA,A,3,20,30,05,09,11,13,14,06,,,,,0.8,0.4,0.8*3A
$GNGSA,A,3,65,71,72,73,75,81,88,,,,,,0.8,0.4,0.8*27
$GAGSA,A,3,110,112,127,,,,,,,,,,0.8,0.4,0.8*11
$BDGSA,A,3,207,210,214,224,226,,,,,,,,0.8,0.4,0.8*14
$GPRMC,100008.000,A,5148.4573,N,01022.0622,E,38.2,79.0,211123,,,A*68
$GPGGA,100009.000,5148.4592,N,01022.0797,E,1,23,0.4,576.8,M,47.4,M,,*50
$GPVTG,80.3,T,,M,38.4,N,71.2,K,A*3D
$GPGSV,3,1,09,05,37,304,43,06,07,203,36,07,70,091,29,09,32,090,33*74
$GPGSV,3,2,09,11,26,230,36,13,20,268,38,14,08,160,41,20,64,259,34*70
$GPGSV,3,3,09,30,64,192,42*4D
$GLGSV,2,1,07,65,33,304,41,71,31,103,33,72,76,044,30,73,41,046,31*60
$GLGSV,2,2,07,75,19,178,45,81,17,340,38,88,22,285,38*50
$GAGSV,1,1,04,110,15,330,34,112,27,308,30,127,24,142,37,130,36,081,31*6D
$BDGSV,2,1,08,205,15,125,29,207,13,076,28,210,12,091,30,214,76,128,26*63
$BDGSV,2,2,08,224,51,159,39,226,49,071,31,227,11,304,30,233,80,279,34*6A
$GPGSA,A,3,07,20,30,09,11,13,14,06,,,,,0.8,0.4,0.6*36
$GNGSA,A,3,65,71,72,73,75,81,88,,,,,,0.8,0.4,0.6*29
$GAGSA,A,3,110,112,127,,,,,,,,,,0.8,0.4,0.6*1F
$BDGSA,A,3,207,210,214,224,226,,,,,,,,0.8,0.4,0.6*1A
$GPRMC,100009.000,A,5148.4592,N,01022.0797,E,38.4,80.3,211123,,,A*6A
$GPGGA,100010.000,5148.4609,N,01022.0971,E,1,24,0.4,577.6,M,47.4,M,,*57
$GPVTG,81.8,T,,M,38.5,N,71.4,K,A*30
$GPGSV,3,1,09,05,37,304,42,06,07,203,36,07,70,091,28,09,32,090,32*75
$GPGSV,3,2,09,11,26,230,35,13,20,268,38,14,08,160,41,20,64,259,33*74
$GPGSV,3,3,09,30,64,192,42*4D
$GLGSV,2,1,07,65,33,304,41,71,31,103,33,72,76,044,29,73,41,046,31*68
$GLGSV,2,2,07,75,19,178,45,81,17,340,37,88,22,285,38*5F
$GAGSV,1,1,04,110,15,330,33,112,27,308,30,127,24,142,36,130,36,081,31*6B
$BDGSV,2,1,08,205,15,125,27,207,13,076,28,210,12,091,30,214,76,128,27*6C
$BDGSV,2,2,08,224,51,159,39,226,49,071,31,227,11,304,30,233,80,279,33*6D
$GPGSA,A,3,07,20,30,09,11,13,14,06,,,,,0.8,0.4,0.6*36
$GNGSA,A,3,65,71,72,73,75,81,88,,,,,,0.8,0.4,0.6*29
$GAGSA,A,3,110,112,127,130,,,,,,,,,0.8,0.4,0.6*2D
$BDGSA,A,3,207,210,214,224,226,,,,,,,,0.8,0.4,0.6*1A
$GPRMC,100010.000,A,5148.4609,N,01022.0971,E,38.5,81.8,211123,,,A*6E
$GPGGA,100011.000,5148.4618,N,01022.1146,E,1,22,0.4,579.0,M,47.4,M,,*55
$GPVTG,85.4,T,,M,38.0,N,70.5,K,A*3D
$GPGSV,3,1,09,05,37,304,40,06,07,203,36,07,70,091,28,09,32,090,32*77
$GPGSV,3,2,09,11,26,230,35,13,20,268,38,14,08,160,40,20,64,259,33*75
$GPGSV,3,3,09,30,64,192,42*4D
$GLGSV,2,1,07,65,33,304,40,71,31,103,33,72,76,044,29,73,41,046,32*6A
$GLGSV,2,2,07,75,19,178,44,81,17,340,42,88,22,285,38*5C
$GAGSV,1,1,04,110,15,330,33,112,27,308,30,127,24,142,36,130,36,081,30*6A
$BDGSV,2,1,08,205,15,125,26,207,13,076,27,210,12,091,30,214,76,128,27*62
$BDGSV,2,2,08,224,51,159,39,226,49,071,31,227,11,304,29,233,80,279,33*65
$GPGSA,A,3,20,30,09,11,13,06,,,,,,,1.0,0.4,0.8*33
$GNGSA,A,3,65,71,72,73,75,81,88,,,,,,1.0,0.4,0.8*2E
$GAGSA,A,3,110,112,127,130,,,,,,,,,1.0,0.4,0.8*2A
$BDGSA,A,3,207,210,214,224,226,,,,,,,,1.0,0.4,0.8*1D
$GPRMC,100011.000,A,5148.4618,N,01022.1146,E,38.0,85.4,211123,,,A*6F
$GPGGA,100012.000,5148.4622,N,01022.1311,E,1,21,0.4,579.3,M,47.4,M,,*5F
$GPVTG,88.7,T,,M,35.7,N,66.2,K,A*39
$GPGSV,3,1,09,05,37,304,40,06,07,203,35,07,70,091,28,09,32,090,31*77
$GPGSV,3,2,09,11,26,230,35,13,20,268,37,14,08,160,39,20,64,259,33*74
$GPGSV,3,3,09,30,64,192,42*4D
$GLGSV,2,1,07,65,33,304,40,71,31,103,33,72,76,044,32,73,41,046,32*60
$GLGSV,2,2,07,75,19,178,44,81,17,340,42,88,22,285,38*5C
$GAGSV,1,1,04,110,15,330,33,112,27,308,29,127,24,142,36,130,36,081,30*62
$BDGSV,2,1,08,205,15,125,24,207,13,076,27,210,12,091,29,214,76,128,27*68
$BDGSV,2,2,08,224,51,159,39,226,49,071,31,227,11,304,29,233,80,279,33*65
$GPGSA,A,3,20,30,05,11,13,,,,,,,,1.0,0.4,0.8*39
$GNGSA,A,3,65,71,72,73,75,81,88,,,,,,1.0,0.4,0.8*2E
$GAGSA,A,3,110,112,127,130,,,,,,,,,1.0,0.4,0.8*2A
$BDGSA,A,3,207,214,224,226,227,,,,,,,,1.0,0.4,0.8*19
$GPRMC,100012.000,A,5148.4622,N,01022.1311,E,35.7,88.7,211123,,,A*61
$GPGGA,100013.000,5148.4623,N,01022.1468,E,1,23,0.4,579.1,M,47.4,M,,*56
$GPVTG,90.0,T,,M,33.8,N,62.6,K,A*3E
$GPGSV,3,1,09,05,37,304,39,06,07,203,34,07,70,091,28,09,32,090,31*78
$GPGSV,3,2,09,11,26,230,35,13,20,268,37,14,08,160,38,20,64,259,33*75
$GPGSV,3,3,09,30,64,192,42*4D
$GLGSV,2,1,07,65,33,304,39,71,31,103,33,72,76,044,35,73,41,046,32*69
$GLGSV,2,2,07,75,19,178,44,81,17,340,42,88,22,285,39*5D
$GAGSV,1,1,04,110,15,330,33,112,27,308,29,127,24,142,35,130,36,081,30*61
$BDGSV,2,1,08,205,15,125,23,207,13,076,27,210,12,091,29,214,76,128,28*60
$BDGSV,2,2,08,224,51,159,38,226,49,071,31,227,11,304,29,233,80,279,33*64
$GPGSA,A,3,07,20,30,05,09,11,13,,,,,,1.0,0.4,0.8*37
$GNGSA,A,3,65,71,72,73,75,81,88,,,,,,1.0,0.4,0.8*2E
$GAGSA,A,3,110,112,127,130,,,,,,,,,1.0,0.4,0.8*2A
$BDGSA,A,3,207,214,224,226,227,,,,,,,,1.0,0.4,0.8*19
$GPRMC,100013.000,A,5148.4623,N,01022.1468,E,33.8,90.0,211123,,,A*6F
$GPGGA,100014.000,5148.4625,N,01022.1615,E,1,23,0.4,579.3,M,47.4,M,,*5D
$GPVTG,91.0,T,,M,32.5,N,60.2,K,A*35
$GPGSV,3,1,09,05,37,304,39,06,07,203,33,07,70,091,27,09,32,090,31*70
$GPGSV,3,2,09,11,26,230,38,13,20,268,37,14,08,160,37,20,64,259,33*77
$GPGSV,3,3,09,30,64,192,42*4D
$GLGSV,2,1,07,65,33,304,39,71,31,103,32,72,76,044,35,73,41,046,32*68
$GLGSV,2,2,07,75,19,178,44,81,17,340,42,88,22,285,40*53
$GAGSV,1,1,04,110,15,330,33,112,27,308,29,127,24,142,38,130,36,081,29*64
$BDGSV,3,1,09,205,15,125,21,207,13,076,27,210,12,091,29,214,76,128,28*62
$BDGSV,3,2,09,224,51,159,37,225,07,199,32,226,49,071,30,227,11,304,28*6F
$BDGSV,3,3,09,233,80,279,33*67
$GPGSA,A,3,20,30,05,09,11,13,14,06,,,,,0.8,0.4,0.8*3A
$GNGSA,A,3,65,71,72,73,75,81,88,,,,,,0.8,0.4,0.8*27
$GAGSA,A,3,110,112,127,,,,,,,,,,0.8,0.4,0.8*11
$BDGSA,A,3,207,210,214,224,226,,,,,,,,0.8,0.4,0.8*14
$GPRMC,100014.000,A,5148.4625,N,01022.1615,E,32.5,91.0,211123,,,A*6B
$GPGGA,100015.000,5148.4621,N,01022.1760,E,1,23,0.4,579.8,M,47.4,M,,*50
$GPVTG,91.7,T,,M,32.6,N,60.4,K,A*37
$GPGSV,3,1,10,05,38,304,39,06,07,203,33,07,70,091,27,09,32,090,30*76
$GPGSV,3,2,10,11,26,230,40,13,20,268,36,14,08,160,37,16,06,023,32*7E
$GPGSV,3,3,10,20,64,259,33,30,64,192,42*7B
$GLGSV,2,1,07,65,33,304,39,71,31,103,32,72,76,044,35,73,41,046,33*69
$GLGSV,2,2,07,75,19,178,44,81,17,340,42,88,22,285,40*53
$GAGSV,1,1,04,110,15,330,33,112,27,308,28,127,24,142,38,130,36,081,29*65
$BDGSV,3,1,09,205,15,125,20,207,13,076,28,210,12,091,28,214,76,128,28*6D
$BDGSV,3,2,09,224,51,159,37,225,07,199,35,226,49,071,30,227,11,304,28*68
$BDGSV,3,3,09,233,80,279,32*66
$GPGSA,A,3,07,20,30,05,09,11,13,14,06,,,,0.8,0.4,0.8*3D
$GNGSA,A,3,65,71,72,73,75,81,88,,,,,,0.8,0.4,0.8*27
$GAGSA,A,3,110,112,127,,,,,,,,,,0.8,0.4,0.8*11
$BDGSA,A,3,207,214,224,226,,,,,,,,,0.8,0.4,0.8*27
$GPRMC,100015.000,A,5148.4621,N,01022.1760,E,32.6,91.7,211123,,,A*69
$GPGGA,100016.000,5148.4616,N,01022.1911,E,1,23,0.4,579.5,M,47.4,M,,*52
$GPVTG,92.4,T,,M,33.3,N,61.7,K,A*31
$GPGSV,3,1,10,05,38,304,39,06,06,203,32,07,70,090,27,09,32,090,30*77
$GPGSV,3,2,10,11,26,230,40,13,20,268,36,14,08,160,37,16,06,023,32*7E
$GPGSV,3,3,10,20,64,259,32,30,64,192,42*7A
$GLGSV,2,1,07,65,34,304,39,71,31,104,31,72,76,045,34,73,41,046,34*6D
$GLGSV,2,2,07,75,19,178,43,81,17,340,42,88,22,284,40*55
$GAGSV,1,1,04,110,15,330,33,112,27,308,28,127,24,142,38,130,36,081,29*65
$BDGSV,3,1,09,205,15,125,18,207,13,076,29,210,12,091,28,214,76,128,28*67
