$GPGGA,093950.000,5154.1057,N,01028.9166,E,1,24,0.4,196.0,M,47.3,M,,*53
$GPVTG,344.4,T,,M,5.7,N,10.5,K,A*3C
$GPGSV,3,1,09,02,16,148,32,03,70,074,37,04,63,188,30,06,29,308,38*76
$GPGSV,3,2,09,09,35,213,37,17,34,246,41,19,37,274,41,28,21,044,33*7F
$GPGSV,3,3,09,31,31,072,34*42
$GLGSV,2,1,06,69,30,050,39,71,27,243,41,78,15,019,35,79,15,070,39*62
$GLGSV,2,2,06,85,66,214,31,86,45,315,43*64
$GAGSV,1,1,04,103,60,198,32,105,56,067,35,113,22,311,39,115,72,271,28*6D
$BDGSV,2,1,05,209,39,062,33,212,32,189,33,214,09,249,29,216,26,042,29*6D
$BDGSV,2,2,05,221,88,304,31*69
$GPGSA,A,3,03,04,19,09,17,31,06,28,02,,,,1.0,0.4,0.8*33
$GNGSA,A,3,69,71,78,79,85,86,,,,,,,1.0,0.4,0.8*2A
$GAGSA,A,3,103,105,113,115,,,,,,,,,1.0,0.4,0.8*2E
$BDGSA,A,3,209,212,214,216,221,,,,,,,,1.0,0.4,0.8*17
$GPRMC,093950.000,A,5154.1057,N,01028.9166,E,5.7,344.4,260923,,,A*64
$GPGGA,093951.000,5154.1074,N,01028.9158,E,1,23,0.4,198.4,M,47.3,M,,*53
$GPVTG,345.1,T,,M,4.8,N,8.9,K,A*03
$GPGSV,3,1,09,02,16,148,32,03,70,074,37,04,63,188,31,06,29,308,38*77
$GPGSV,3,2,09,09,35,213,37,17,34,246,42,19,37,274,41,28,21,044,33*7C
$GPGSV,3,3,09,31,31,072,35*43
$GLGSV,2,1,06,69,30,050,39,71,27,243,42,78,15,019,35,79,15,070,39*61
$GLGSV,2,2,06,85,66,214,32,86,45,315,43*67
$GAGSV,1,1,04,103,60,198,32,105,56,067,36,113,22,311,39,115,72,271,28*6E
$BDGSV,2,1,05,209,39,062,34,212,32,189,33,214,09,249,29,216,26,042,29*6A
$BDGSV,2,2,05,221,88,304,31*69
$GPGSA,A,3,03,04,19,09,17,31,06,28,02,,,,1.0,0.4,0.8*33
$GNGSA,A,3,69,71,78,79,85,86,,,,,,,1.0,0.4,0.8*2A
$GAGSA,A,3,103,105,113,115,,,,,,,,,1.0,0.4,0.8*2E
$BDGSA,A,3,209,212,216,221,,,,,,,,,1.0,0.4,0.8*20
$GPRMC,093951.000,A,5154.1074,N,01028.9158,E,4.8,345.1,260923,,,A*63
$GPGGA,093952.000,5154.1091,N,01028.9157,E,1,24,0.4,199.5,M,47.3,M,,*53
$GPVTG,343.9,T,,M,4.8,N,8.9,K,A*0D
$GPGSV,3,1,09,02,16,148,32,03,70,074,37,04,63,188,31,06,29,308,38*77
$GPGSV,3,2,09,09,35,213,38,17,34,246,42,19,37,274,40,28,21,044,33*72
$GPGSV,3,3,09,31,31,072,35*43
$GLGSV,2,1,06,69,30,050,39,71,27,243,43,78,15,019,35,79,15,070,39*60
$GLGSV,2,2,06,85,66,214,33,86,45,315,43*66
$GAGSV,1,1,04,103,60,198,31,105,56,067,36,113,22,311,39,115,72,271,27*62
$BDGSV,2,1,05,209,39,062,34,212,32,189,33,214,09,249,29,216,26,042,29*6A
$BDGSV,2,2,05,221,88,304,31*69
$GPGSA,A,3,03,04,19,09,17,31,06,28,02,,,,1.0,0.4,0.8*33
$GNGSA,A,3,69,71,78,79,85,86,,,,,,,1.0,0.4,0.8*2A
$GAGSA,A,3,103,105,113,115,,,,,,,,,1.0,0.4,0.8*2E
$BDGSA,A,3,209,212,214,216,221,,,,,,,,1.0,0.4,0.8*17
$GPRMC,093952.000,A,5154.1091,N,01028.9157,E,4.8,343.9,260923,,,A*6A
$GPGGA,093953.000,5154.1109,N,01028.9155,E,1,24,0.4,198.7,M,47.3,M,,*53
$GPVTG,344.4,T,,M,5.2,N,9.5,K,A*01
$GPGSV,3,1,09,02,16,148,32,03,70,074,37,04,63,188,31,06,29,308,38*77
$GPGSV,3,2,09,09,35,213,38,17,34,246,42,19,37,274,40,28,21,044,33*72
$GPGSV,3,3,09,31,31,072,36*40
$GLGSV,2,1,06,69,30,050,39,71,27,243,43,78,15,019,35,79,15,070,38*61
$GLGSV,2,2,06,85,66,214,34,86,45,315,43*61
$GAGSV,1,1,04,103,60,198,31,105,56,067,36,113,22,311,39,115,72,271,27*62
$BDGSV,2,1,05,209,39,062,34,212,32,189,33,214,09,249,28,216,26,042,30*63
$BDGSV,2,2,05,221,88,304,31*69
$GPGSA,A,3,03,04,19,09,17,31,06,28,02,,,,1.0,0.4,0.8*33
$GNGSA,A,3,69,71,78,79,85,86,,,,,,,1.0,0.4,0.8*2A
$GAGSA,A,3,103,105,113,115,,,,,,,,,1.0,0.4,0.8*2E
$BDGSA,A,3,209,212,214,216,221,,,,,,,,1.0,0.4,0.8*17
$GPRMC,093953.000,A,5154.1109,N,01028.9155,E,5.2,344.4,260923,,,A*68
$GPGGA,093954.000,5154.1127,N,01028.9146,E,1,24,0.4,200.2,M,47.3,M,,*5D
$GPVTG,345.8,T,,M,6.7,N,12.3,K,A*36
$GPGSV,3,1,09,02,16,148,31,03,70,074,37,04,63,188,31,06,29,308,38*74
$GPGSV,3,2,09,09,35,213,38,17,34,246,42,19,37,274,39,28,21,044,33*7C
$GPGSV,3,3,09,31,31,072,36*40
$GLGSV,2,1,06,69,30,050,39,71,27,243,43,78,15,019,34,79,15,070,38*60
$GLGSV,2,2,06,85,66,214,34,86,45,315,43*61
$GAGSV,1,1,04,103,60,198,31,105,56,067,36,113,22,311,39,115,72,271,27*62
$BDGSV,2,1,06,209,39,062,34,211,49,293,33,212,32,189,33,214,09,249,28*63
$BDGSV,2,2,06,216,26,042,30,221,88,304,31*6E
$GPGSA,A,3,03,04,19,09,17,31,06,28,02,,,,1.0,0.4,0.8*33
$GNGSA,A,3,69,71,78,79,85,86,,,,,,,1.0,0.4,0.8*2A
$GAGSA,A,3,103,105,113,115,,,,,,,,,1.0,0.4,0.8*2E
$BDGSA,A,3,209,212,214,216,221,,,,,,,,1.0,0.4,0.8*17
$GPRMC,093954.000,A,5154.1127,N,01028.9146,E,6.7,345.8,260923,,,A*6A
$GPGGA,093955.000,5154.1147,N,01028.9139,E,1,24,0.4,200.8,M,47.3,M,,*58
$GPVTG,345.9,T,,M,7.3,N,13.5,K,A*35
$GPGSV,3,1,09,02,16,148,31,03,70,074,37,04,63,188,31,06,29,308,38*74
$GPGSV,3,2,09,09,35,213,38,17,34,246,43,19,37,274,39,28,21,044,33*7D
$GPGSV,3,3,09,31,31,072,36*40
$GLGSV,2,1,07,69,30,050,39,71,27,243,43,78,15,019,34,79,15,070,38*61
$GLGSV,2,2,07,84,15,165,14,85,66,214,34,86,45,315,43*5F
$GAGSV,1,1,04,103,60,198,30,105,56,067,36,113,22,311,39,115,72,271,28*6C
$BDGSV,2,1,07,209,39,062,34,211,49,293,33,212,32,189,33,214,09,249,28*62
$BDGSV,2,2,07,216,26,042,31,221,88,304,31,222,30,068,41*64
$GPGSA,A,3,03,04,19,09,17,31,06,28,02,,,,1.0,0.4,0.8*33
$GNGSA,A,3,69,71,78,79,85,86,,,,,,,1.0,0.4,0.8*2A
$GAGSA,A,3,103,105,113,115,,,,,,,,,1.0,0.4,0.8*2E
$BDGSA,A,3,209,212,214,216,221,,,,,,,,1.0,0.4,0.8*17
$GPRMC,093955.000,A,5154.1147,N,01028.9139,E,7.3,345.9,260923,,,A*61
$GPGGA,093956.000,5154.1168,N,01028.9135,E,1,24,0.4,200.6,M,47.3,M,,*54
$GPVTG,346.4,T,,M,8.9,N,16.5,K,A*3B
$GPGSV,3,1,09,02,16,148,31,03,70,074,37,04,63,188,31,06,29,308,38*74
$GPGSV,3,2,09,09,35,213,38,17,34,246,43,19,37,274,39,28,21,044,33*7D
$GPGSV,3,3,09,31,31,072,36*40
$GLGSV,2,1,07,69,30,050,39,71,27,243,43,78,15,019,34,79,15,070,37*6E
$GLGSV,2,2,07,84,15,165,17,85,66,214,34,86,45,315,43*5C
$GAGSV,1,1,04,103,60,198,30,105,56,067,36,113,22,311,39,115,72,271,28*6C
$BDGSV,2,1,07,209,39,062,34,211,49,293,33,212,32,189,33,214,09,249,27*6D
$BDGSV,2,2,07,216,26,042,31,221,88,304,32,222,30,068,41*67
$GPGSA,A,3,03,04,19,09,17,31,06,28,02,,,,1.0,0.4,0.8*33
$GNGSA,A,3,69,71,78,79,85,86,,,,,,,1.0,0.4,0.8*2A
$GAGSA,A,3,103,105,113,115,,,,,,,,,1.0,0.4,0.8*2E
$BDGSA,A,3,209,212,214,216,221,,,,,,,,1.0,0.4,0.8*17
$GPRMC,093956.000,A,5154.1168,N,01028.9135,E,8.9,346.4,260923,,,A*68
$GPGGA,093957.000,5154.1191,N,01028.9118,E,1,24,0.4,202.0,M,47.3,M,,*58
$GPVTG,344.5,T,,M,12.2,N,22.7,K,A*0D
$GPGSV,3,1,09,02,16,148,31,03,70,074,37,04,63,188,31,06,29,308,38*74
$GPGSV,3,2,09,09,35,213,38,17,34,246,43,19,37,274,39,28,21,044,33*7D
$GPGSV,3,3,09,31,31,072,36*40
$GLGSV,2,1,07,69,30,050,39,71,27,243,42,78,15,019,34,79,15,070,37*6F
$GLGSV,2,2,07,84,15,165,19,85,66,214,34,86,45,315,43*52
$GAGSV,2,1,05,103,60,198,30,105,56,067,36,108,13,219,22,113,22,311,39*61
$GAGSV,2,2,05,115,72,271,29*62
$BDGSV,2,1,08,209,39,062,34,211,49,293,33,212,32,189,34,214,09,249,27*65
$BDGSV,2,2,08,216,26,042,31,221,88,304,32,222,30,068,41,236,16,065,28*61
$GPGSA,A,3,03,04,19,09,17,31,06,28,02,,,,1.0,0.4,0.8*33
$GNGSA,A,3,69,71,78,79,85,86,,,,,,,1.0,0.4,0.8*2A
$GAGSA,A,3,103,105,113,115,,,,,,,,,1.0,0.4,0.8*2E
$BDGSA,A,3,209,212,214,216,221,,,,,,,,1.0,0.4,0.8*17
$GPRMC,093957.000,A,5154.1191,N,01028.9118,E,12.2,344.5,260923,,,A*53
$GPGGA,093958.000,5154.1233,N,01028.9094,E,1,23,0.4,205.4,M,47.3,M,,*5D
$GPVTG,343.5,T,,M,15.3,N,28.4,K,A*05
$GPGSV,3,1,09,02,16,148,36,03,70,074,37,04,63,188,31,06,29,308,38*73
$GPGSV,3,2,09,09,35,213,38,17,34,246,44,19,37,274,39,28,21,044,33*7A
$GPGSV,3,3,09,31,31,072,36*40
$GLGSV,2,1,07,69,30,050,38,71,27,243,42,78,15,019,34,79,15,070,37*6E
$GLGSV,2,2,07,84,15,165,19,85,66,214,34,86,45,315,42*53
$GAGSV,2,1,05,103,60,198,29,105,56,067,36,108,13,219,22,113,22,311,39*69
$GAGSV,2,2,05,115,72,271,29*62
$BDGSV,2,1,08,209,39,062,34,211,49,293,32,212,32,189,34,214,09,249,26*65
$BDGSV,2,2,08,216,26,042,30,221,88,304,33,222,30,068,41,236,16,065,31*69
$GPGSA,A,3,03,04,19,09,17,31,06,28,02,,,,1.0,0.4,0.8*33
$GNGSA,A,3,69,71,78,79,85,86,,,,,,,1.0,0.4,0.8*2A
$GAGSA,A,3,103,105,108,113,115,,,,,,,,1.0,0.4,0.8*17
$BDGSA,A,3,209,212,221,,,,,,,,,,1.0,0.4,0.8*15
$GPRMC,093958.000,A,5154.1233,N,01028.9094,E,15.3,343.5,260923,,,A*53
$GPGGA,093959.000,5154.1280,N,01028.9072,E,1,24,0.4,207.7,M,47.3,M,,*5A
$GPVTG,343.1,T,,M,16.5,N,30.5,K,A*0C
$GPGSV,3,1,09,02,16,148,36,03,70,074,36,04,63,188,31,06,29,308,38*72
$GPGSV,3,2,09,09,35,213,37,17,34,246,45,19,37,274,39,28,21,044,33*74
$GPGSV,3,3,09,31,31,072,36*40
$GLGSV,2,1,07,69,30,050,38,71,27,243,41,78,15,019,34,79,15,070,37*6D
$GLGSV,2,2,07,84,15,165,19,85,66,214,34,86,45,315,42*53
$GAGSV,2,1,05,103,60,198,29,105,56,067,37,108,13,219,22,113,22,311,39*68
$GAGSV,2,2,05,115,72,271,29*62
$BDGSV,2,1,08,209,39,062,34,211,49,293,31,212,32,189,34,214,09,249,26*66
$BDGSV,2,2,08,216,26,042,30,221,88,304,33,222,30,068,40,236,16,065,34*6D
$GPGSA,A,3,03,04,19,09,17,31,06,28,02,,,,1.0,0.4,0.8*33
$GNGSA,A,3,69,71,78,79,84,85,86,,,,,,1.0,0.4,0.8*26
$GAGSA,A,3,103,105,108,113,115,,,,,,,,1.0,0.4,0.8*17
$BDGSA,A,3,209,212,221,,,,,,,,,,1.0,0.4,0.8*15
$GPRMC,093959.000,A,5154.1280,N,01028.9072,E,16.5,343.1,260923,,,A*53
$GPGGA,094000.000,5154.1332,N,01028.9041,E,1,24,0.4,207.7,M,47.3,M,,*50
$GPVTG,343.1,T,,M,19.3,N,35.7,K,A*02
$GPGSV,3,1,09,02,16,148,36,03,70,074,36,04,63,188,31,06,29,308,38*72
$GPGSV,3,2,09,09,35,213,37,17,34,246,45,19,37,274,38,28,21,044,33*75
$GPGSV,3,3,09,31,31,072,36*40
$GLGSV,2,1,07,69,30,050,38,71,27,243,41,78,15,019,33,79,15,070,37*6A
$GLGSV,2,2,07,84,15,165,19,85,66,214,34,86,45,315,42*53
$GAGSV,2,1,05,103,60,198,29,105,56,067,37,108,13,219,22,113,22,311,39*68
$GAGSV,2,2,05,115,72,271,29*62
$BDGSV,2,1,08,209,39,062,34,211,49,293,31,212,32,189,34,214,09,249,25*65
$BDGSV,2,2,08,216,26,042,30,221,88,304,33,222,30,068,40,236,16,065,35*6C
$GPGSA,A,3,03,04,19,09,17,31,06,28,02,,,,1.0,0.4,0.8*33
$GNGSA,A,3,69,71,78,79,84,85,86,,,,,,1.0,0.4,0.8*26
$GAGSA,A,3,103,105,108,113,115,,,,,,,,1.0,0.4,0.8*17
$BDGSA,A,3,209,212,221,,,,,,,,,,1.0,0.4,0.8*15
$GPRMC,094000.000,A,5154.1332,N,01028.9041,E,19.3,343.1,260923,,,A*50
$GPGGA,094001.000,5154.1389,N,01028.9009,E,1,24,0.4,206.9,M,47.3,M,,*52
$GPVTG,342.0,T,,M,20.0,N,37.1,K,A*0F
$GPGSV,3,1,09,02,16,148,36,03,70,074,36,04,63,188,32,06,29,308,38*71
$GPGSV,3,2,09,09,35,213,36,17,34,246,45,19,37,274,38,28,21,044,33*74
$GPGSV,3,3,09,31,31,072,36*40
$GLGSV,2,1,07,69,30,050,37,71,27,243,40,78,15,019,33,79,15,070,36*65
$GLGSV,2,2,07,84,15,165,19,85,66,214,34,86,45,315,42*53
$GAGSV,2,1,05,103,60,198,29,105,56,067,37,108,13,219,22,113,22,311,39*68
$GAGSV,2,2,05,115,72,271,30*6A
$BDGSV,2,1,08,209,39,062,35,211,49,293,31,212,32,189,34,214,09,249,25*64
$BDGSV,2,2,08,216,26,042,31,221,88,304,33,222,30,068,40,236,16,065,35*6D
$GPGSA,A,3,03,04,19,09,17,31,06,28,02,,,,1.0,0.4,0.8*33
$GNGSA,A,3,69,71,78,79,84,85,86,,,,,,1.0,0.4,0.8*26
$GAGSA,A,3,103,105,108,113,115,,,,,,,,1.0,0.4,0.8*17
$BDGSA,A,3,209,212,221,,,,,,,,,,1.0,0.4,0.8*15
$GPRMC,094001.000,A,5154.1389,N,01028.9009,E,20.0,342.0,260923,,,A*54
$GPGGA,094002.000,5154.1444,N,01028.8979,E,1,23,0.4,204.4,M,47.3,M,,*50
$GPVTG,340.4,T,,M,20.7,N,38.3,K,A*03
$GPGSV,3,1,09,02,16,148,36,03,70,074,36,04,63,188,32,06,29,308,38*71
$GPGSV,3,2,09,09,35,213,36,17,34,246,45,19,37,274,40,28,21,044,33*7B
$GPGSV,3,3,09,31,31,072,36*40
$GLGSV,2,1,07,69,30,050,37,71,27,243,40,78,15,019,33,79,15,070,36*65
$GLGSV,2,2,07,84,15,165,19,85,66,214,34,86,45,315,41*50
$GAGSV,2,1,05,103,60,198,29,105,56,067,37,108,13,219,22,113,22,311,39*68
$GAGSV,2,2,05,115,72,271,32*68
$BDGSV,2,1,08,209,39,062,35,211,49,293,30,212,32,189,35,214,09,249,25*64
$BDGSV,2,2,08,216,26,042,32,221,88,304,33,222,30,068,40,236,16,065,36*6D
$GPGSA,A,3,03,04,19,09,17,31,06,28,02,,,,1.0,0.4,0.8*33
$GNGSA,A,3,69,71,78,79,85,86,,,,,,,1.0,0.4,0.8*2A
$GAGSA,A,3,103,105,108,113,115,,,,,,,,1.0,0.4,0.8*17
$BDGSA,A,3,209,212,221,,,,,,,,,,1.0,0.4,0.8*15
$GPRMC,094002.000,A,5154.1444,N,01028.8979,E,20.7,340.4,260923,,,A*5F
$GPGGA,094003.000,5154.1501,N,01028.8946,E,1,23,0.4,203.9,M,47.3,M,,*57
$GPVTG,338.6,T,,M,21.0,N,38.8,K,A*03
$GPGSV,3,1,09,02,16,148,36,03,70,074,36,04,63,188,32,06,29,308,38*71
$GPGSV,3,2,09,09,35,213,36,17,34,246,44,19,37,274,41,28,21,044,33*7B
$GPGSV,3,3,09,31,31,072,36*40
$GLGSV,2,1,07,69,30,050,37,71,27,243,40,78,15,019,33,79,15,070,36*65
$GLGSV,2,2,07,84,15,165,19,85,66,214,34,86,45,315,41*50
$GAGSV,2,1,05,103,60,198,29,105,56,067,37,108,13,219,22,113,22,311,39*68
$GAGSV,2,2,05,115,72,271,35*6F
$BDGSV,2,1,08,209,39,062,35,211,49,293,30,212,32,189,36,214,09,249,24*66
$BDGSV,2,2,08,216,26,042,32,221,88,304,34,222,30,068,40,236,16,065,36*6A
$GPGSA,A,3,03,04,19,09,17,31,06,28,02,,,,1.0,0.4,0.8*33
$GNGSA,A,3,69,71,78,79,85,86,,,,,,,1.0,0.4,0.8*2A
$GAGSA,A,3,103,105,108,113,115,,,,,,,,1.0,0.4,0.8*17
$BDGSA,A,3,209,212,221,,,,,,,,,,1.0,0.4,0.8*15
$GPRMC,094003.000,A,5154.1501,N,01028.8946,E,21.0,338.6,260923,,,A*59
$GPGGA,094004.000,5154.1559,N,01028.8906,E,1,23,0.4,203.6,M,47.3,M,,*56
$GPVTG,336.3,T,,M,21.9,N,40.6,K,A*00
$GPGSV,3,1,09,02,16,148,36,03,70,074,36,04,63,188,32,06,29,308,38*71
$GPGSV,3,2,09,09,35,213,35,17,34,246,44,19,37,274,40,28,21,044,33*79
$GPGSV,3,3,09,31,31,072,36*40
$GLGSV,2,1,07,69,30,050,37,71,27,243,39,78,15,019,33,79,15,070,36*6B
$GLGSV,2,2,07,84,15,165,19,85,66,214,34,86,45,315,40*51
$GAGSV,2,1,05,103,60,198,28,105,56,067,36,108,13,219,22,113,22,311,39*68
$GAGSV,2,2,05,115,72,271,35*6F
$BDGSV,2,1,08,209,39,062,35,211,49,293,30,212,32,189,37,214,09,249,24*67
$BDGSV,2,2,08,216,26,042,32,221,88,304,34,222,30,068,40,236,16,065,35*69
$GPGSA,A,3,03,04,19,09,17,31,06,28,02,,,,1.0,0.4,0.8*33
$GNGSA,A,3,69,71,78,79,85,86,,,,,,,1.0,0.4,0.8*2A
$GAGSA,A,3,103,105,108,113,115,,,,,,,,1.0,0.4,0.8*17
$BDGSA,A,3,209,212,221,,,,,,,,,,1.0,0.4,0.8*15
$GPRMC,094004.000,A,5154.1559,N,01028.8906,E,21.9,336.3,260923,,,A*55
$GPGGA,094005.000,5154.1618,N,01028.8867,E,1,23,0.4,204.2,M,47.3,M,,*54
$GPVTG,336.4,T,,M,22.3,N,41.3,K,A*0A
$GPGSV,3,1,09,02,16,148,36,03,70,074,36,04,63,188,32,06,29,308,38*71
$GPGSV,3,2,09,09,35,213,35,17,34,246,43,19,37,274,40,28,21,044,32*7F
$GPGSV,3,3,09,31,31,072,36*40
$GLGSV,2,1,07,69,30,050,36,71,27,243,41,78,15,019,32,79,15,070,35*67
$GLGSV,2,2,07,84,15,165,20,85,66,214,34,86,45,315,39*55
$GAGSV,2,1,05,103,60,198,28,105,56,067,36,108,13,219,23,113,22,311,38*68
$GAGSV,2,2,05,115,72,271,36*6C
$BDGSV,2,1,08,209,39,062,35,211,49,293,30,212,32,189,37,214,09,249,24*67
$BDGSV,2,2,08,216,26,042,31,221,88,304,35,222,30,068,39,236,16,065,35*65
$GPGSA,A,3,03,04,19,09,17,31,06,28,02,,,,1.0,0.4,0.8*33
$GNGSA,A,3,69,71,78,79,85,86,,,,,,,1.0,0.4,0.8*2A
$GAGSA,A,3,103,105,108,113,115,,,,,,,,1.0,0.4,0.8*17
$BDGSA,A,3,209,212,221,,,,,,,,,,1.0,0.4,0.8*15
$GPRMC,094005.000,A,5154.1618,N,01028.8867,E,22.3,336.4,260923,,,A*5A
$GPGGA,094006.000,5154.1676,N,01028.8824,E,1,23,0.4,204.0,M,47.3,M,,*5A
$GPVTG,335.1,T,,M,22.9,N,42.4,K,A*02
$GPGSV,3,1,09,02,16,148,36,03,70,074,35,04,63,188,31,06,29,308,38*71
$GPGSV,3,2,09,09,35,213,35,17,34,246,43,19,37,274,40,28,21,044,33*7E
$GPGSV,3,3,09,31,31,072,36*40
$GLGSV,2,1,07,69,30,050,36,71,27,243,41,78,15,019,32,79,15,070,35*67
$GLGSV,2,2,07,84,15,165,21,85,66,214,34,86,45,315,39*54
$GAGSV,2,1,05,103,60,198,28,105,56,067,36,108,13,219,23,113,22,311,38*68
$GAGSV,2,2,05,115,72,271,36*6C
$BDGSV,2,1,08,209,39,062,35,211,49,293,29,212,32,189,38,214,09,249,24*60
$BDGSV,2,2,08,216,26,042,33,221,88,304,35,222,30,068,39,236,16,065,35*67
$GPGSA,A,3,03,04,19,09,17,31,06,28,02,,,,1.0,0.4,0.8*33
$GNGSA,A,3,69,71,78,79,84,85,86,,,,,,1.0,0.4,0.8*26
$GAGSA,A,3,103,105,113,115,,,,,,,,,1.0,0.4,0.8*2E
$BDGSA,A,3,209,212,221,,,,,,,,,,1.0,0.4,0.8*15
$GPRMC,094006.000,A,5154.1676,N,01028.8824,E,22.9,335.1,260923,,,A*5A
$GPGGA,094007.000,5154.1732,N,01028.8780,E,1,24,0.4,205.3,M,47.3,M,,*5E
$GPVTG,334.7,T,,M,23.1,N,42.8,K,A*00
$GPGSV,3,1,09,02,16,148,36,03,70,074,35,04,63,188,31,06,29,308,38*71
$GPGSV,3,2,09,09,35,213,35,17,34,246,43,19,37,274,40,28,21,044,33*7E
$GPGSV,3,3,09,31,31,072,37*41
$GLGSV,2,1,07,69,30,050,36,71,27,243,41,78,15,019,32,79,15,070,37*65
$GLGSV,2,2,07,84,15,165,22,85,66,214,33,86,45,315,38*51
$GAGSV,2,1,05,103,60,198,28,105,56,067,36,108,13,219,23,113,22,311,38*68
$GAGSV,2,2,05,115,72,271,36*6C
$BDGSV,2,1,08,209,39,062,35,211,49,293,29,212,32,189,38,214,09,249,32*67
$BDGSV,2,2,08,216,26,042,33,221,88,304,35,222,30,068,39,236,16,065,35*67
$GPGSA,A,3,03,04,19,09,17,31,06,28,02,,,,1.0,0.4,0.8*33
$GNGSA,A,3,69,71,78,79,84,85,86,,,,,,1.0,0.4,0.8*26
$GAGSA,A,3,103,105,108,113,115,,,,,,,,1.0,0.4,0.8*17
$BDGSA,A,3,209,212,221,,,,,,,,,,1.0,0.4,0.8*15
$GPRMC,094007.000,A,5154.1732,N,01028.8780,E,23.1,334.7,260923,,,A*55
$GPGGA,094008.000,5154.1790,N,01028.8736,E,1,23,0.4,205.8,M,47.3,M,,*58
$GPVTG,335.3,T,,M,23.2,N,42.9,K,A*07
$GPGSV,3,1,09,02,16,148,36,03,70,074,34,04,63,188,30,06,29,308,38*71
$GPGSV,3,2,09,09,35,213,35,17,34,246,43,19,37,274,40,28,21,044,33*7E
$GPGSV,3,3,09,31,31,072,38*4E
$GLGSV,2,1,07,69,30,050,36,71,27,243,41,78,15,019,32,79,15,070,38*6A
$GLGSV,2,2,07,84,15,165,22,85,66,214,33,86,45,315,38*51
$GAGSV,2,1,05,103,60,198,28,105,56,067,35,108,13,219,24,113,22,311,38*6C
$GAGSV,2,2,05,115,72,271,36*6C
$BDGSV,2,1,08,209,39,062,35,211,49,293,28,212,32,189,39,214,09,249,32*67
$BDGSV,2,2,08,216,26,042,33,221,88,304,35,222,30,068,39,236,16,065,35*67
$GPGSA,A,3,03,04,19,09,17,31,06,28,02,,,,1.0,0.4,0.8*33
$GNGSA,A,3,69,71,78,79,85,86,,,,,,,1.0,0.4,0.8*2A
$GAGSA,A,3,103,105,108,113,115,,,,,,,,1.0,0.4,0.8*17
$BDGSA,A,3,209,212,221,,,,,,,,,,1.0,0.4,0.8*15
$GPRMC,094008.000,A,5154.1790,N,01028.8736,E,23.2,335.3,260923,,,A*59
$GPGGA,094009.000,5154.1852,N,01028.8695,E,1,24,0.4,204.9,M,47.3,M,,*57
$GPVTG,337.2,T,,M,23.1,N,42.7,K,A*09
$GPGSV,3,1,09,02,16,148,36,03,70,074,34,04,63,188,29,06,29,308,38*79
$GPGSV,3,2,09,09,35,213,35,17,34,246,43,19,37,274,40,28,21,044,32*7F
$GPGSV,3,3,09,31,31,072,38*4E
$GLGSV,2,1,07,69,30,050,36,71,27,243,41,78,15,019,32,79,15,070,38*6A
$GLGSV,2,2,07,84,15,165,23,85,66,214,32,86,45,315,37*5E
$GAGSV,2,1,05,103,60,198,28,105,56,067,35,108,13,219,31,113,22,311,38*68
$GAGSV,2,2,05,115,72,271,36*6C
$BDGSV,2,1,08,209,39,062,35,211,49,293,28,212,32,189,39,214,09,249,35*60
$BDGSV,2,2,08,216,26,042,33,221,88,304,34,222,30,068,38,236,16,065,35*67
$GPGSA,A,3,03,04,19,09,17,31,06,28,02,,,,1.0,0.4,0.8*33
$GNGSA,A,3,69,71,78,79,84,85,86,,,,,,1.0,0.4,0.8*26
$GAGSA,A,3,103,105,108,113,115,,,,,,,,1.0,0.4,0.8*17
$BDGSA,A,3,209,212,221,,,,,,,,,,1.0,0.4,0.8*15
$GPRMC,094009.000,A,5154.1852,N,01028.8695,E,23.1,337.2,260923,,,A*51
$GPGGA,094010.000,5154.1913,N,01028.8663,E,1,24,0.4,204.4,M,47.3,M,,*5F
$GPVTG,341.7,T,,M,22.8,N,42.3,K,A*01
$GPGSV,3,1,09,02,16,148,36,03,70,074,34,04,63,188,29,06,29,308,38*79
$GPGSV,3,2,09,09,35,213,35,17,34,246,42,19,37,274,40,28,21,044,32*7E
$GPGSV,3,3,09,31,31,072,38*4E
$GLGSV,2,1,07,69,30,050,36,71,27,243,41,78,15,019,31,79,15,070,38*69
$GLGSV,2,2,07,84,15,165,23,85,66,214,32,86,45,315,37*5E
$GAGSV,2,1,05,103,60,198,28,105,56,067,35,108,13,219,37,113,22,311,38*6E
$GAGSV,2,2,05,115,72,271,36*6C
$BDGSV,2,1,08,209,39,062,35,211,49,293,27,212,32,189,39,214,09,249,35*6F
$BDGSV,2,2,08,216,26,042,32,221,88,304,34,222,30,068,38,236,16,065,35*66
$GPGSA,A,3,03,04,19,09,17,31,06,28,02,,,,1.0,0.4,0.8*33
$GNGSA,A,3,69,71,78,79,84,85,86,,,,,,1.0,0.4,0.8*26
$GAGSA,A,3,103,105,108,113,115,,,,,,,,1.0,0.4,0.8*17
$BDGSA,A,3,209,212,221,,,,,,,,,,1.0,0.4,0.8*15
$GPRMC,094010.000,A,5154.1913,N,01028.8663,E,22.8,341.7,260923,,,A*58
$GPGGA,094011.000,5154.1973,N,01028.8636,E,1,21,0.6,204.7,M,47.3,M,,*5C
$GPVTG,344.6,T,,M,22.1,N,40.9,K,A*04
$GPGSV,3,1,09,02,16,148,36,03,70,074,33,04,63,188,29,06,29,308,38*7E
$GPGSV,3,2,09,09,35,213,35,17,34,246,42,19,37,274,40,28,21,044,32*7E
$GPGSV,3,3,09,31,31,072,38*4E
$GLGSV,2,1,07,69,30,050,36,71,27,243,41,78,15,019,30,79,15,070,37*67
$GLGSV,2,2,07,84,15,165,23,85,66,214,36,86,45,315,37*5A
$GAGSV,2,1,05,103,60,198,28,105,56,067,35,108,13,219,37,113,22,311,37*61
$GAGSV,2,2,05,115,72,271,36*6C
$BDGSV,2,1,08,209,39,062,35,211,49,293,27,212,32,189,39,214,09,249,35*6F
$BDGSV,2,2,08,216,26,042,32,221,88,304,34,222,30,068,38,236,16,065,35*66
$GPGSA,A,3,03,04,19,09,17,31,06,28,02,,,,1.0,0.6,0.8*31
$GNGSA,A,3,69,71,85,86,,,,,,,,,1.0,0.6,0.8*29
$GAGSA,A,3,103,105,108,113,115,,,,,,,,1.0,0.6,0.8*15
$BDGSA,A,3,209,212,221,,,,,,,,,,1.0,0.6,0.8*17
$GPRMC,094011.000,A,5154.1973,N,01028.8636,E,22.1,344.6,260923,,,A*52
$GPGGA,094012.000,5154.2032,N,01028.8613,E,1,22,0.6,204.9,M,47.3,M,,*5A
$GPVTG,348.2,T,,M,21.6,N,40.0,K,A*01
$GPGSV,3,1,09,02,16,148,36,03,70,074,33,04,63,188,34,06,29,308,37*7D
$GPGSV,3,2,09,09,35,213,35,17,34,246,42,19,37,274,40,28,21,044,31*7D
$GPGSV,3,3,09,31,31,072,38*4E
$GLGSV,2,1,07,69,30,050,35,71,27,243,41,78,15,019,30,79,15,070,36*65
$GLGSV,2,2,07,84,15,165,23,85,66,214,36,86,45,315,40*5A
$GAGSV,2,1,05,103,60,198,28,105,56,067,35,108,13,219,37,113,22,311,37*61
$GAGSV,2,2,05,115,72,271,36*6C
$BDGSV,2,1,08,209,39,062,34,211,49,293,27,212,32,189,39,214,09,249,35*6E
$BDGSV,2,2,08,216,26,042,32,221,88,304,34,222,30,068,38,236,16,065,34*67
$GPGSA,A,3,03,04,19,09,17,31,06,28,02,,,,1.0,0.6,0.8*31
$GNGSA,A,3,69,71,79,85,86,,,,,,,,1.0,0.6,0.8*27
$GAGSA,A,3,103,105,108,113,115,,,,,,,,1.0,0.6,0.8*15
$BDGSA,A,3,209,212,221,,,,,,,,,,1.0,0.6,0.8*17
$GPRMC,094012.000,A,5154.2032,N,01028.8613,E,21.6,348.2,260923,,,A*55
$GPGGA,094013.000,5154.2090,N,01028.8595,E,1,22,0.4,205.3,M,47.3,M,,*57
$GPVTG,349.2,T,,M,21.5,N,39.9,K,A*04
$GPGSV,3,1,09,02,16,148,35,03,70,074,33,04,63,188,34,06,29,308,37*7E
$GPGSV,3,2,09,09,35,213,35,17,34,246,42,19,37,274,40,28,21,044,31*7D
$GPGSV,3,3,09,31,31,072,37*41
$GLGSV,2,1,07,69,30,050,34,71,27,243,41,78,15,019,29,79,15,070,35*6F
$GLGSV,2,2,07,84,15,165,23,85,66,214,36,86,45,315,40*5A
$GAGSV,2,1,05,103,60,198,28,105,56,067,35,108,13,219,37,113,22,311,36*60
$GAGSV,2,2,05,115,72,271,36*6C
$BDGSV,2,1,08,209,39,062,33,211,49,293,26,212,32,189,39,214,09,249,34*69
$BDGSV,2,2,08,216,26,042,31,221,88,304,34,222,30,068,37,236,16,065,33*6C
$GPGSA,A,3,03,04,19,09,17,31,06,28,02,,,,1.0,0.4,0.8*33
$GNGSA,A,3,69,71,84,85,86,,,,,,,,1.0,0.4,0.8*27
$GAGSA,A,3,103,105,108,113,115,,,,,,,,1.0,0.4,0.8*17
$BDGSA,A,3,209,212,221,,,,,,,,,,1.0,0.4,0.8*15
$GPRMC,094013.000,A,5154.2090,N,01028.8595,E,21.5,349.2,260923,,,A*53
$GPGGA,094014.000,5154.2148,N,01028.8580,E,1,19,0.6,205.7,M,47.3,M,,*5E
$GPVTG,351.3,T,,M,20.6,N,38.2,K,A*04
$GPGSV,3,1,09,02,16,148,34,03,70,074,32,04,63,188,33,06,29,308,36*78
$GPGSV,3,2,09,09,35,213,35,17,34,246,42,19,37,274,39,28,21,044,30*72
$GPGSV,3,3,09,31,31,072,36*40
$GLGSV,2,1,07,69,30,050,33,71,27,243,41,78,15,019,28,79,15,070,34*68
$GLGSV,2,2,07,84,15,165,23,85,66,214,35,86,45,315,40*59
$GAGSV,2,1,05,103,60,198,27,105,56,067,34,108,13,219,36,113,22,311,36*6F
$GAGSV,2,2,05,115,72,271,36*6C
$BDGSV,2,1,08,209,39,062,32,211,49,293,26,212,32,189,38,214,09,249,33*6E
$BDGSV,2,2,08,216,26,042,31,221,88,304,34,222,30,068,36,236,16,065,32*6C
$GPGSA,A,3,03,04,19,09,17,06,28,02,,,,,1.2,0.6,1.0*38
$GNGSA,A,3,69,71,85,86,,,,,,,,,1.2,0.6,1.0*22
$GAGSA,A,3,103,105,113,115,,,,,,,,,1.2,0.6,1.0*27
$BDGSA,A,3,209,212,221,,,,,,,,,,1.2,0.6,1.0*1C
$GPRMC,094014.000,A,5154.2148,N,01028.8580,E,20.6,351.3,260923,,,A*5E
$GPGGA,094015.000,5154.2201,N,01028.8574,E,1,18,0.6,205.8,M,47.3,M,,*54
$GPVTG,356.7,T,,M,18.0,N,33.3,K,A*00
$GPGSV,3,1,09,02,16,148,34,03,70,074,32,04,63,188,33,06,29,308,36*78
$GPGSV,3,2,09,09,35,213,35,17,34,246,41,19,37,274,38,28,21,044,30*70
$GPGSV,3,3,09,31,31,072,35*43
$GLGSV,2,1,07,69,30,050,33,71,27,243,40,78,15,019,27,79,15,070,33*61
$GLGSV,2,2,07,84,15,165,23,85,66,214,35,86,45,315,39*57
$GAGSV,2,1,05,103,60,198,27,105,56,067,33,108,13,219,35,113,22,311,35*68
$GAGSV,2,2,05,115,72,271,35*6F
$BDGSV,3,1,09,209,39,062,31,211,49,293,25,212,32,189,38,214,09,249,32*6F
$BDGSV,3,2,09,216,26,042,30,221,88,304,33,222,30,068,35,234,48,226,36*61
$BDGSV,3,3,09,236,16,065,31*60
$GPGSA,A,3,03,04,19,09,06,28,02,,,,,,1.0,0.6,0.8*35
$GNGSA,A,3,69,71,79,84,85,,,,,,,,1.0,0.6,0.8*25
$GAGSA,A,3,103,105,108,115,,,,,,,,,1.0,0.6,0.8*26
$BDGSA,A,3,209,212,,,,,,,,,,,1.0,0.6,0.8*26
$GPRMC,094015.000,A,5154.2201,N,01028.8574,E,18.0,356.7,260923,,,A*54
$GPGGA,094016.000,5154.2250,N,01028.8569,E,1,13,0.6,205.9,M,47.3,M,,*55
$GPVTG,355.4,T,,M,16.8,N,31.1,K,A*06
$GPGSV,3,1,09,02,16,148,33,03,70,074,31,04,63,188,32,06,29,308,35*7E
$GPGSV,3,2,09,09,35,213,34,17,34,246,39,19,37,274,37,28,21,044,29*79
$GPGSV,3,3,09,31,31,072,34*42
$GLGSV,2,1,07,69,30,050,32,71,27,243,39,78,15,018,25,79,15,069,32*64
$GLGSV,2,2,07,84,15,165,23,85,66,213,34,86,45,315,37*5F
$GAGSV,2,1,05,103,60,198,27,105,56,067,33,108,13,219,33,113,22,311,34*6F
$GAGSV,2,2,05,115,72,271,35*6F
$BDGSV,3,1,09,209,39,062,31,211,49,293,25,212,32,189,38,214,09,249,30*6D
$BDGSV,3,2,09,216,26,042,29,221,88,304,31,222,30,068,34,234,48,226,36*6A
$BDGSV,3,3,09,236,16,065,30*61
$GPGSA,A,3,03,28,02,,,,,,,,,,1.2,0.6,1.0*3D
$GNGSA,A,3,71,79,86,,,,,,,,,,1.2,0.6,1.0*2E
$GAGSA,A,3,103,105,113,115,,,,,,,,,1.2,0.6,1.0*27
$BDGSA,A,3,209,212,214,,,,,,,,,,1.2,0.6,1.0*1A
$GPRMC,094016.000,A,5154.2250,N,01028.8569,E,16.8,355.4,260923,,,A*59
$GPGGA,094017.000,5154.2297,N,01028.8557,E,1,13,0.6,205.9,M,47.3,M,,*52
$GPVTG,352.8,T,,M,16.9,N,31.3,K,A*0E
$GPGSV,3,1,09,02,16,148,32,03,70,074,30,04,63,188,30,06,29,308,33*7A
$GPGSV,3,2,09,09,35,213,33,17,34,246,38,19,37,274,36,28,21,044,28*7F
$GPGSV,3,3,09,31,31,072,33*45
$GLGSV,2,1,07,69,30,050,31,71,27,243,38,78,15,018,24,79,15,069,31*64
$GLGSV,2,2,07,84,15,165,23,85,66,213,32,86,45,315,36*58
$GAGSV,2,1,05,103,60,198,26,105,56,067,32,108,13,219,32,113,22,311,33*69
$GAGSV,2,2,05,115,72,271,33*69
$BDGSV,3,1,09,209,39,062,30,211,49,293,25,212,32,189,37,214,09,249,29*6B
$BDGSV,3,2,09,216,26,042,27,221,88,304,30,222,30,068,33,234,48,226,35*61
$BDGSV,3,3,09,236,16,065,29*69
$GPGSA,A,3,03,19,09,06,28,02,,,,,,,1.2,0.6,1.0*3A
$GNGSA,A,3,79,85,86,,,,,,,,,,1.2,0.6,1.0*25
$GAGSA,A,3,103,105,,,,,,,,,,,1.2,0.6,1.0*21
$BDGSA,A,3,209,214,,,,,,,,,,,1.2,0.6,1.0*2B
$GPRMC,094017.000,A,5154.2297,N,01028.8557,E,16.9,352.8,260923,,,A*54
$GPGGA,094018.000,5154.2350,N,01028.8535,E,1,18,0.6,205.7,M,47.3,M,,*56
$GPVTG,347.3,T,,M,18.6,N,34.5,K,A*03
$GPGSV,3,1,09,02,16,148,31,03,70,074,29,04,63,188,29,06,29,308,32*78
$GPGSV,3,2,09,09,35,213,32,17,34,246,36,19,37,274,35,28,21,044,28*73
$GPGSV,3,3,09,31,31,072,33*45
$GLGSV,2,1,07,69,30,050,31,71,27,243,37,78,15,018,22,79,15,069,30*6C
$GLGSV,2,2,07,84,15,165,23,85,66,213,31,86,45,315,35*58
$GAGSV,2,1,05,103,60,198,25,105,56,067,31,108,13,219,31,113,22,311,31*68
$GAGSV,2,2,05,115,72,271,32*68
$BDGSV,3,1,09,209,39,062,29,211,49,293,24,212,32,189,35,214,09,249,28*61
$BDGSV,3,2,09,216,26,042,26,221,88,304,28,222,30,068,32,234,48,226,35*68
$BDGSV,3,3,09,236,16,065,29*69
$GPGSA,A,3,03,19,09,31,06,28,02,,,,,,1.0,0.6,0.8*33
$GNGSA,A,3,69,79,85,86,,,,,,,,,1.0,0.6,0.8*21
$GAGSA,A,3,103,105,108,115,,,,,,,,,1.0,0.6,0.8*26
$BDGSA,A,3,209,212,214,,,,,,,,,,1.0,0.6,0.8*11
$GPRMC,094018.000,A,5154.2350,N,01028.8535,E,18.6,347.3,260923,,,A*5B
$GPGGA,094019.000,5154.2399,N,01028.8516,E,1,17,0.6,205.7,M,47.3,M,,*5C
$GPVTG,346.3,T,,M,18.3,N,33.9,K,A*0C
$GPGSV,3,1,09,02,16,148,30,03,70,074,28,04,63,188,27,06,29,308,32*76
$GPGSV,3,2,09,09,35,213,31,17,34,246,35,19,37,274,34,28,21,044,28*72
$GPGSV,3,3,09,31,31,072,32*44
$GLGSV,2,1,07,69,30,050,30,71,27,243,36,78,15,018,21,79,15,069,30*6F
$GLGSV,2,2,07,84,15,165,23,85,66,213,30,86,45,315,34*58
$GAGSV,2,1,05,103,60,198,24,105,56,067,31,108,13,219,29,113,22,311,30*61
$GAGSV,2,2,05,115,72,271,31*6B
$BDGSV,3,1,09,209,39,062,29,211,49,293,24,212,32,189,34,214,09,249,28*60
$BDGSV,3,2,09,216,26,042,24,221,88,304,27,222,30,068,31,234,48,226,34*67
$BDGSV,3,3,09,236,16,065,28*68
$GPGSA,A,3,03,19,09,31,06,28,,,,,,,1.2,0.6,1.0*3A
$GNGSA,A,3,69,71,79,85,86,,,,,,,,1.2,0.6,1.0*2C
$GAGSA,A,3,103,105,108,115,,,,,,,,,1.2,0.6,1.0*2D
$BDGSA,A,3,209,212,,,,,,,,,,,1.2,0.6,1.0*2D
$GPRMC,094019.000,A,5154.2399,N,01028.8516,E,18.3,346.3,260923,,,A*5A
$GPGGA,094020.000,5154.2451,N,01028.8502,E,1,17,0.8,205.6,M,47.3,M,,*5F
$GPVTG,344.5,T,,M,18.0,N,33.4,K,A*06
$GPGSV,3,1,09,02,16,148,29,03,70,074,35,04,63,188,26,06,29,308,34*75
$GPGSV,3,2,09,09,35,213,31,17,34,246,33,19,37,274,34,28,21,044,33*7E
$GPGSV,3,3,09,31,31,072,32*44
$GLGSV,2,1,07,69,30,050,34,71,27,243,36,78,15,018,19,79,15,069,37*67
$GLGSV,2,2,07,84,15,165,23,85,66,213,30,86,45,315,33*5F
$GAGSV,2,1,05,103,60,198,24,105,56,067,38,108,13,219,28,113,22,311,28*60
$GAGSV,2,2,05,115,72,271,31*6B
$BDGSV,3,1,09,209,39,062,33,211,49,293,23,212,32,189,33,214,09,249,27*64
$BDGSV,3,2,09,216,26,042,23,221,88,304,25,222,30,068,39,234,48,226,34*6A
$BDGSV,3,3,09,236,16,065,28*68
$GPGSA,A,3,03,19,09,31,06,28,,,,,,,1.2,0.8,0.8*3D
$GNGSA,A,3,69,71,79,85,86,,,,,,,,1.2,0.8,0.8*2B
$GAGSA,A,3,103,105,108,115,,,,,,,,,1.2,0.8,0.8*2A
$BDGSA,A,3,209,214,,,,,,,,,,,1.2,0.8,0.8*2C
$GPRMC,094020.000,A,5154.2451,N,01028.8502,E,18.0,344.5,260923,,,A*51
$GPGGA,094021.000,5154.2511,N,01028.8481,E,1,20,0.6,205.4,M,47.3,M,,*59
$GPVTG,339.1,T,,M,19.9,N,36.8,K,A*09
$GPGSV,3,1,09,02,16,148,28,03,70,074,35,04,63,188,28,06,29,308,34*7A
$GPGSV,3,2,09,09,35,213,31,17,34,246,40,19,37,274,36,28,21,044,34*7F
$GPGSV,3,3,09,31,31,072,38*4E
$GLGSV,2,1,07,69,30,050,39,71,27,243,36,78,15,018,36,79,15,069,37*67
$GLGSV,2,2,07,84,15,165,23,85,66,213,34,86,45,315,33*5B
$GAGSV,2,1,05,103,61,198,24,105,56,067,37,108,13,219,27,113,22,311,36*6E
$GAGSV,2,2,05,115,72,271,31*6B
$BDGSV,3,1,09,209,39,062,33,211,49,293,22,212,32,189,38,214,09,249,26*6F
$BDGSV,3,2,09,216,26,042,30,221,88,304,27,222,30,068,38,234,48,226,40*68
$BDGSV,3,3,09,236,16,065,34*65
$GPGSA,A,3,03,19,09,31,06,28,02,,,,,,1.0,0.6,0.8*33
$GNGSA,A,3,69,71,79,84,85,86,,,,,,,1.0,0.6,0.8*2B
$GAGSA,A,3,103,105,108,115,,,,,,,,,1.0,0.6,0.8*26
$BDGSA,A,3,209,212,214,,,,,,,,,,1.0,0.6,0.8*11
$GPRMC,094021.000,A,5154.2511,N,01028.8481,E,19.9,339.1,260923,,,A*59
$GPGGA,094022.000,5154.2567,N,01028.8444,E,1,24,0.4,205.1,M,47.3,M,,*51
$GPVTG,327.8,T,,M,19.9,N,36.8,K,A*0F
$GPGSV,3,1,09,02,16,148,31,03,70,074,35,04,63,188,29,06,29,308,34*73
$GPGSV,3,2,09,09,35,213,31,17,34,246,41,19,37,274,39,28,21,044,34*71
$GPGSV,3,3,09,31,31,072,39*4F
$GLGSV,2,1,07,69,30,050,39,71,27,243,38,78,15,018,36,79,15,069,37*69
$GLGSV,2,2,07,84,15,165,23,85,66,213,34,86,45,315,33*5B
$GAGSV,2,1,05,103,61,198,27,105,56,067,37,108,13,219,27,113,23,311,36*6C
$GAGSV,2,2,05,115,72,271,31*6B
$BDGSV,3,1,09,209,39,062,34,211,49,293,20,212,32,189,38,214,09,249,26*6A
$BDGSV,3,2,09,216,26,041,30,221,88,304,28,222,30,068,38,234,48,226,41*65
$BDGSV,3,3,09,236,16,065,35*64
$GPGSA,A,3,03,04,19,09,17,31,06,28,02,,,,1.0,0.4,0.8*33
$GNGSA,A,3,69,71,78,79,84,85,86,,,,,,1.0,0.4,0.8*26
$GAGSA,A,3,103,105,108,113,115,,,,,,,,1.0,0.4,0.8*17
$BDGSA,A,3,209,212,221,,,,,,,,,,1.0,0.4,0.8*15
$GPRMC,094022.000,A,5154.2567,N,01028.8444,E,19.9,327.8,260923,,,A*54
$GPGGA,094023.000,5154.2619,N,01028.8392,E,1,24,0.4,205.1,M,47.3,M,,*56
$GPVTG,326.2,T,,M,19.6,N,36.4,K,A*07
$GPGSV,3,1,09,02,16,148,31,03,70,074,35,04,63,188,30,06,29,308,34*7B
$GPGSV,3,2,09,09,35,213,39,17,34,246,41,19,37,274,40,28,21,044,34*77
$GPGSV,3,3,09,31,31,072,39*4F
$GLGSV,2,1,07,69,30,050,39,71,27,243,42,78,15,018,36,79,15,069,36*65
$GLGSV,2,2,07,84,15,165,23,85,66,213,35,86,45,315,32*5B
$GAGSV,2,1,05,103,61,198,31,105,56,067,37,108,13,219,26,113,23,311,36*6A
$GAGSV,2,2,05,115,72,271,30*6A
$BDGSV,3,1,09,209,39,062,34,211,49,293,19,212,32,189,39,214,09,249,25*62
$BDGSV,3,2,09,216,26,041,30,221,88,312,29,222,30,068,38,234,48,226,43*61
$BDGSV,3,3,09,236,16,065,35*64
$GPGSA,A,3,03,04,19,09,17,31,06,28,02,,,,1.0,0.4,0.8*33
$GNGSA,A,3,69,71,78,79,84,85,86,,,,,,1.0,0.4,0.8*26
$GAGSA,A,3,103,105,108,113,115,,,,,,,,1.0,0.4,0.8*17
$BDGSA,A,3,209,212,221,,,,,,,,,,1.0,0.4,0.8*15
$GPRMC,094023.000,A,5154.2619,N,01028.8392,E,19.6,326.2,260923,,,A*57
$GPGGA,094024.000,5154.2667,N,01028.8332,E,1,24,0.4,205.0,M,47.3,M,,*53
$GPVTG,315.7,T,,M,19.6,N,36.3,K,A*05
$GPGSV,3,1,09,02,16,148,32,03,70,074,35,04,63,188,30,06,29,308,34*78
$GPGSV,3,2,09,09,35,213,40,17,34,245,41,19,37,274,40,28,21,044,34*7A
$GPGSV,3,3,09,31,31,072,39*4F
$GLGSV,2,1,07,69,30,050,39,71,27,243,43,78,15,018,36,79,15,069,36*64
$GLGSV,2,2,07,84,15,165,28,85,66,213,35,86,45,315,32*50
$GAGSV,2,1,05,103,61,198,31,105,56,067,37,108,13,219,25,113,23,311,36*69
$GAGSV,2,2,05,115,72,271,30*6A
$BDGSV,3,1,09,209,39,062,34,211,49,293,17,212,32,189,39,214,09,249,25*6C
$BDGSV,3,2,09,216,26,041,30,221,88,312,29,222,30,068,38,234,48,226,44*66
$BDGSV,3,3,09,236,16,065,35*64
$GPGSA,A,3,03,04,19,09,17,31,06,28,02,,,,1.0,0.4,0.8*33
$GNGSA,A,3,69,71,78,79,84,85,86,,,,,,1.0,0.4,0.8*26
$GAGSA,A,3,103,105,108,113,115,,,,,,,,1.0,0.4,0.8*17
$BDGSA,A,3,209,212,221,,,,,,,,,,1.0,0.4,0.8*15
$GPRMC,094024.000,A,5154.2667,N,01028.8332,E,19.6,315.7,260923,,,A*56
$GPGGA,094025.000,5154.2705,N,01028.8269,E,1,24,0.4,205.1,M,47.3,M,,*59
$GPVTG,308.1,T,,M,20.2,N,37.4,K,A*07
$GPGSV,3,1,09,02,16,148,33,03,70,074,35,04,63,188,36,06,29,308,34*7F
$GPGSV,3,2,09,09,35,213,40,17,34,245,41,19,37,274,40,28,21,044,34*7A
$GPGSV,3,3,09,31,31,072,39*4F
$GLGSV,2,1,07,69,30,050,39,71,27,243,43,78,15,018,35,79,15,069,36*67
$GLGSV,2,2,07,84,15,165,28,85,66,213,36,86,45,315,32*53
$GAGSV,2,1,05,103,61,198,31,105,56,067,36,108,13,219,28,113,23,311,36*65
$GAGSV,2,2,05,115,72,271,30*6A
$BDGSV,3,1,09,209,39,062,34,211,49,293,16,212,32,189,39,214,09,249,24*6C
$BDGSV,3,2,09,216,26,041,30,221,88,312,29,222,30,068,38,234,48,226,44*66
$BDGSV,3,3,09,236,16,065,35*64
$GPGSA,A,3,03,04,19,09,17,31,06,28,02,,,,1.0,0.4,0.8*33
$GNGSA,A,3,69,71,78,79,84,85,86,,,,,,1.0,0.4,0.8*26
$GAGSA,A,3,103,105,108,113,115,,,,,,,,1.0,0.4,0.8*17
$BDGSA,A,3,209,212,221,,,,,,,,,,1.0,0.4,0.8*15
$GPRMC,094025.000,A,5154.2705,N,01028.8269,E,20.2,308.1,260923,,,A*59
$GPGGA,094026.000,5154.2738,N,01028.8195,E,1,24,0.4,205.2,M,47.3,M,,*57
$GPVTG,307.9,T,,M,20.7,N,38.3,K,A*0D
$GPGSV,3,1,09,02,16,148,34,03,70,074,34,04,63,188,39,06,29,308,34*76
$GPGSV,3,2,09,09,35,213,41,17,34,245,41,19,37,274,40,28,21,043,33*7B
$GPGSV,3,3,09,31,31,072,39*4F
$GLGSV,2,1,07,69,30,050,39,71,27,243,43,78,15,018,35,79,15,069,35*64
$GLGSV,2,2,07,84,15,165,28,85,66,213,38,86,45,315,31*5E
$GAGSV,2,1,05,103,61,198,31,105,56,067,36,108,13,219,30,113,23,311,35*6F
$GAGSV,2,2,05,115,72,271,30*6A
$BDGSV,3,1,09,209,39,062,34,211,49,293,14,212,32,189,39,214,09,249,24*6E
$BDGSV,3,2,09,216,26,041,30,221,88,312,29,222,30,068,37,234,48,226,44*69
$BDGSV,3,3,09,236,16,065,35*64
$GPGSA,A,3,03,04,19,09,17,31,06,28,02,,,,1.0,0.4,0.8*33
$GNGSA,A,3,69,71,78,79,84,85,86,,,,,,1.0,0.4,0.8*26
$GAGSA,A,3,103,105,108,113,115,,,,,,,,1.0,0.4,0.8*17
$BDGSA,A,3,209,212,221,,,,,,,,,,1.0,0.4,0.8*15
$GPRMC,094026.000,A,5154.2738,N,01028.8195,E,20.7,307.9,260923,,,A*56
$GPGGA,094027.000,5154.2771,N,01028.8120,E,1,24,0.4,205.5,M,47.3,M,,*52
$GPVTG,306.3,T,,M,20.2,N,37.3,K,A*0C
$GPGSV,3,1,09,02,16,148,34,03,70,074,34,04,63,188,38,06,29,308,34*77
$GPGSV,3,2,09,09,35,213,42,17,34,245,42,19,37,274,40,28,21,043,33*7B
$GPGSV,3,3,09,31,31,072,39*4F
$GLGSV,2,1,07,69,30,050,38,71,27,243,43,78,15,018,35,79,15,069,34*64
$GLGSV,2,2,07,84,15,165,28,85,66,213,39,86,45,315,31*5F
$GAGSV,2,1,05,103,61,198,31,105,56,067,36,108,13,219,29,113,23,311,35*67
$GAGSV,2,2,05,115,72,271,33*69
$BDGSV,3,1,09,209,39,062,33,211,49,293,14,212,32,189,38,214,09,249,24*68
$BDGSV,3,2,09,216,26,041,30,221,88,312,29,222,30,068,37,234,48,226,45*68
$BDGSV,3,3,09,236,16,065,34*65
$GPGSA,A,3,03,04,19,09,17,31,06,28,02,,,,1.0,0.4,0.8*33
$GNGSA,A,3,69,71,78,79,84,85,86,,,,,,1.0,0.4,0.8*26
$GAGSA,A,3,103,105,108,113,115,,,,,,,,1.0,0.4,0.8*17
$BDGSA,A,3,209,212,221,,,,,,,,,,1.0,0.4,0.8*15
$GPRMC,094027.000,A,5154.2771,N,01028.8120,E,20.2,306.3,260923,,,A*5A
$GPGGA,094028.000,5154.2803,N,01028.8050,E,1,21,0.6,205.4,M,47.3,M,,*57
$GPVTG,306.7,T,,M,19.8,N,36.8,K,A*02
$GPGSV,3,1,09,02,16,148,34,03,70,074,33,04,63,188,38,06,29,308,34*70
$GPGSV,3,2,09,09,35,213,43,17,34,245,43,19,37,274,40,28,21,043,32*7A
$GPGSV,3,3,09,31,31,072,39*4F
$GLGSV,2,1,07,69,30,050,38,71,27,243,44,78,15,018,35,79,15,069,34*63
$GLGSV,2,2,07,84,15,165,27,85,66,213,43,86,45,315,30*5C
$GAGSV,2,1,05,103,61,198,31,105,56,067,36,108,13,219,29,113,23,311,34*66
$GAGSV,2,2,05,115,72,271,35*6F
$BDGSV,3,1,09,209,39,062,33,211,49,293,13,212,32,189,38,214,09,249,26*6D
$BDGSV,3,2,09,216,26,041,30,221,88,312,27,222,30,068,36,234,48,226,45*67
$BDGSV,3,3,09,236,16,065,35*64
$GPGSA,A,3,03,04,19,09,17,31,06,28,02,,,,1.0,0.6,0.8*31
$GNGSA,A,3,69,71,78,79,85,,,,,,,,1.0,0.6,0.8*26
$GAGSA,A,3,103,105,108,113,115,,,,,,,,1.0,0.6,0.8*15
$BDGSA,A,3,209,212,,,,,,,,,,,1.0,0.6,0.8*26
$GPRMC,094028.000,A,5154.2803,N,01028.8050,E,19.8,306.7,260923,,,A*5D
$GPGGA,094029.000,5154.2835,N,01028.7981,E,1,23,0.4,205.2,M,47.3,M,,*5F
$GPVTG,305.5,T,,M,20.0,N,37.0,K,A*08
$GPGSV,3,1,10,02,16,148,35,03,70,074,32,04,63,188,38,06,29,308,33*7F
$GPGSV,3,2,10,09,35,213,43,17,34,245,44,19,37,274,40,21,09,146,25*74
$GPGSV,3,3,10,28,21,043,32,31,31,072,39*78
$GLGSV,2,1,07,69,30,050,38,71,27,243,44,78,15,018,35,79,15,069,33*64
$GLGSV,2,2,07,84,15,165,27,85,66,213,43,86,45,315,29*54
$GAGSV,2,1,05,103,61,198,31,105,56,067,35,108,13,219,29,113,23,311,34*65
$GAGSV,2,2,05,115,72,271,35*6F
$BDGSV,3,1,09,209,39,062,32,211,49,293,12,212,32,189,37,214,09,249,32*67
$BDGSV,3,2,09,216,26,041,30,221,88,312,26,222,30,068,36,234,48,226,46*65
$BDGSV,3,3,09,236,16,065,35*64
$GPGSA,A,3,03,04,19,09,17,31,06,28,02,,,,1.0,0.4,0.8*33
$GNGSA,A,3,69,71,78,79,84,85,,,,,,,1.0,0.4,0.8*28
$GAGSA,A,3,103,105,108,113,115,,,,,,,,1.0,0.4,0.8*17
$BDGSA,A,3,209,212,214,,,,,,,,,,1.0,0.4,0.8*13
$GPRMC,094029.000,A,5154.2835,N,01028.7981,E,20.0,305.5,260923,,,A*50
$GPGGA,094030.000,5154.2865,N,01028.7909,E,1,21,0.4,205.0,M,47.3,M,,*52
$GPVTG,304.6,T,,M,19.8,N,36.6,K,A*0F
$GPGSV,3,1,10,02,16,148,39,03,70,074,32,04,63,188,38,06,29,308,33*73
$GPGSV,3,2,10,09,35,213,43,17,34,245,45,19,37,274,40,21,09,146,27*77
$GPGSV,3,3,10,28,21,043,32,31,31,072,38*79
$GLGSV,2,1,07,69,30,050,38,71,27,243,44,78,15,018,35,79,15,069,33*64
$GLGSV,2,2,07,84,15,165,27,85,66,213,43,86,45,315,29*54
$GAGSV,2,1,05,103,61,198,31,105,56,067,34,108,13,219,30,113,23,311,33*6B
$GAGSV,2,2,05,115,72,271,35*6F
$BDGSV,2,1,08,209,39,062,32,212,32,189,37,214,09,249,32,216,26,041,30*64
$BDGSV,2,2,08,221,88,312,24,222,30,068,35,234,48,226,47,236,16,065,34*66
$GPGSA,A,3,03,04,19,09,17,31,06,28,21,,,,1.0,0.4,0.8*32
$GNGSA,A,3,69,71,78,84,85,,,,,,,,1.0,0.4,0.8*26
$GAGSA,A,3,103,108,113,115,,,,,,,,,1.0,0.4,0.8*23
$BDGSA,A,3,209,212,214,,,,,,,,,,1.0,0.4,0.8*13
$GPRMC,094030.000,A,5154.2865,N,01028.7909,E,19.8,304.6,260923,,,A*5D
$GPGGA,094031.000,5154.2894,N,01028.7837,E,1,22,0.4,205.2,M,47.3,M,,*50
$GPVTG,303.2,T,,M,19.5,N,36.1,K,A*06
$GPGSV,3,1,11,01,20,143,40,02,16,148,42,03,70,074,31,04,63,188,38*7A
$GPGSV,3,2,11,06,29,308,33,09,35,213,43,17,34,245,45,19,37,274,40*7C
$GPGSV,3,3,11,21,09,146,27,28,21,043,32,31,31,072,37*4B
$GLGSV,2,1,07,69,30,050,37,71,27,243,44,78,15,018,34,79,15,069,32*6B
$GLGSV,2,2,07,84,15,165,27,85,66,213,43,86,45,315,28*55
$GAGSV,2,1,05,103,61,198,31,105,56,067,34,108,13,219,31,113,23,311,33*6A
$GAGSV,2,2,05,115,72,271,35*6F
$BDGSV,2,1,08,209,39,062,31,212,32,189,37,214,09,249,32,216,26,041,30*67
$BDGSV,2,2,08,221,88,312,23,222,30,068,35,234,48,226,47,236,16,065,34*61
$GPGSA,A,3,03,04,19,09,17,06,28,21,,,,,1.0,0.4,0.8*30
$GNGSA,A,3,69,71,78,79,85,86,,,,,,,1.0,0.4,0.8*2A
$GAGSA,A,3,103,105,108,113,115,,,,,,,,1.0,0.4,0.8*17
$BDGSA,A,3,209,212,214,,,,,,,,,,1.0,0.4,0.8*13
$GPRMC,094031.000,A,5154.2894,N,01028.7837,E,19.5,303.2,260923,,,A*50
$GPGGA,094032.000,5154.2923,N,01028.7762,E,1,24,0.4,205.4,M,47.3,M,,*51
$GPVTG,302.7,T,,M,19.2,N,35.5,K,A*02
$GPGSV,3,1,11,01,20,143,40,02,16,148,42,03,70,074,31,04,63,188,38*7A
$GPGSV,3,2,11,06,29,308,33,09,35,213,43,17,34,245,44,19,37,274,40*7D
$GPGSV,3,3,11,21,09,146,27,28,21,043,31,31,31,072,35*4A
$GLGSV,2,1,07,69,30,050,37,71,27,243,44,78,15,018,34,79,15,069,32*6B
$GLGSV,2,2,07,84,15,165,27,85,66,213,43,86,45,315,28*55
$GAGSV,2,1,05,103,61,198,32,105,56,067,33,108,13,219,37,113,23,311,32*69
$GAGSV,2,2,05,115,72,271,35*6F
$BDGSV,2,1,08,209,39,062,30,212,32,189,37,214,09,249,32,216,26,041,30*66
$BDGSV,2,2,08,221,88,312,21,222,30,068,34,234,48,226,47,236,16,065,34*62
$GPGSA,A,3,03,04,19,09,17,06,28,02,21,,,,0.8,0.4,0.8*3B
$GNGSA,A,3,69,71,78,79,84,85,86,,,,,,0.8,0.4,0.8*2F
$GAGSA,A,3,103,105,108,113,115,,,,,,,,0.8,0.4,0.8*1E
$BDGSA,A,3,209,212,214,,,,,,,,,,0.8,0.4,0.8*1A
$GPRMC,094032.000,A,5154.2923,N,01028.7762,E,19.2,302.7,260923,,,A*52
$GPGGA,094033.000,5154.2951,N,01028.7691,E,1,24,0.4,205.6,M,47.3,M,,*5A
$GPVTG,303.1,T,,M,18.5,N,34.3,K,A*04
$GPGSV,3,1,11,01,20,143,41,02,16,148,41,03,70,074,31,04,63,188,38*78
$GPGSV,3,2,11,06,29,308,33,09,35,213,43,17,34,245,44,19,37,274,40*7D
$GPGSV,3,3,11,21,09,146,27,28,21,043,31,31,31,072,34*4B
$GLGSV,2,1,07,69,30,050,37,71,27,243,44,78,15,018,34,79,15,069,32*6B
$GLGSV,2,2,07,84,15,165,27,85,66,213,43,86,45,315,27*5A
$GAGSV,2,1,05,103,61,198,32,105,56,067,33,108,13,219,38,113,23,311,32*66
$GAGSV,2,2,05,115,72,271,35*6F
$BDGSV,2,1,08,209,39,062,30,212,32,189,36,214,09,249,32,216,26,041,30*67
$BDGSV,2,2,08,221,88,312,20,222,30,068,34,234,48,226,47,236,16,065,34*63
$GPGSA,A,3,03,04,19,09,17,06,28,02,21,,,,0.8,0.4,0.8*3B
$GNGSA,A,3,69,71,78,79,84,85,86,,,,,,0.8,0.4,0.8*2F
$GAGSA,A,3,103,105,108,113,115,,,,,,,,0.8,0.4,0.8*1E
$BDGSA,A,3,209,212,214,,,,,,,,,,0.8,0.4,0.8*1A
$GPRMC,094033.000,A,5154.2951,N,01028.7691,E,18.5,303.1,260923,,,A*5A
$GPGGA,094034.000,5154.2979,N,01028.7625,E,1,24,0.4,205.9,M,47.3,M,,*57
$GPVTG,304.1,T,,M,17.7,N,32.8,K,A*03
$GPGSV,3,1,11,01,20,143,41,02,16,148,41,03,70,074,30,04,63,188,38*79
$GPGSV,3,2,11,06,29,308,33,09,35,213,43,17,34,245,44,19,37,274,40*7D
$GPGSV,3,3,11,21,09,146,26,28,21,043,31,31,31,072,32*4C
$GLGSV,2,1,07,69,30,050,37,71,27,243,44,78,15,018,40,79,15,069,31*6B
$GLGSV,2,2,07,84,15,165,27,85,66,213,43,86,45,315,27*5A
$GAGSV,2,1,05,103,61,198,32,105,56,067,33,108,13,219,38,113,23,311,31*65
$GAGSV,2,2,05,115,72,271,35*6F
$BDGSV,2,1,08,209,39,062,29,212,32,189,36,214,09,249,32,216,26,041,30*6F
$BDGSV,2,2,08,221,88,312,18,222,30,068,34,234,48,226,47,236,16,065,33*6F
$GPGSA,A,3,03,04,19,09,17,06,28,02,21,,,,0.8,0.4,0.8*3B
$GNGSA,A,3,69,71,78,79,84,85,86,,,,,,0.8,0.4,0.8*2F
$GAGSA,A,3,103,105,108,113,115,,,,,,,,0.8,0.4,0.8*1E
$BDGSA,A,3,209,212,214,,,,,,,,,,0.8,0.4,0.8*1A
$GPRMC,094034.000,A,5154.2979,N,01028.7625,E,17.7,304.1,260923,,,A*52
$GPGGA,094035.000,5154.3006,N,01028.7560,E,1,24,0.4,205.8,M,47.3,M,,*55
$GPVTG,305.3,T,,M,17.2,N,31.8,K,A*06
$GPGSV,3,1,11,01,20,143,41,02,16,148,41,03,70,074,30,04,63,188,38*79
$GPGSV,3,2,11,06,29,308,33,09,35,213,43,17,34,245,44,19,37,274,40*7D
$GPGSV,3,3,11,21,09,146,26,28,21,043,31,31,31,072,31*4F
$GLGSV,2,1,07,69,30,050,37,71,27,243,44,78,15,018,40,79,15,069,31*6B
$GLGSV,2,2,07,84,15,165,26,85,66,213,43,86,45,315,26*5A
$GAGSV,2,1,05,103,61,198,32,105,56,067,32,108,13,219,38,113,23,311,30*65
$GAGSV,2,2,05,115,72,271,35*6F
$BDGSV,2,1,08,209,39,062,29,212,32,189,36,214,09,249,32,216,26,041,30*6F
$BDGSV,2,2,08,221,88,312,17,222,30,068,33,234,48,226,48,236,16,065,33*68
$GPGSA,A,3,03,04,19,09,17,06,28,02,21,,,,0.8,0.4,0.8*3B
$GNGSA,A,3,69,71,78,79,84,85,86,,,,,,0.8,0.4,0.8*2F
$GAGSA,A,3,103,105,108,113,115,,,,,,,,0.8,0.4,0.8*1E
$BDGSA,A,3,209,212,214,,,,,,,,,,0.8,0.4,0.8*1A
$GPRMC,094035.000,A,5154.3006,N,01028.7560,E,17.2,305.3,260923,,,A*57
$GPGGA,094036.000,5154.3032,N,01028.7499,E,1,22,0.4,205.9,M,47.3,M,,*51
$GPVTG,305.5,T,,M,16.5,N,30.6,K,A*09
$GPGSV,3,1,11,01,20,143,41,02,16,148,40,03,70,074,30,04,63,188,39*79
$GPGSV,3,2,11,06,29,308,32,09,35,213,43,17,34,245,44,19,37,274,40*7C
$GPGSV,3,3,11,21,09,146,26,28,21,043,31,31,31,072,29*46
$GLGSV,2,1,07,69,30,050,36,71,27,243,44,78,15,018,39,79,15,069,31*64
$GLGSV,2,2,07,84,15,165,25,85,66,213,43,86,45,315,26*59
$GAGSV,2,1,06,103,61,198,32,105,56,067,32,108,13,219,38,113,23,311,30*66
$GAGSV,2,2,06,115,72,271,35,134,45,153,35*6A
$BDGSV,2,1,08,209,39,062,29,212,32,189,36,214,09,249,32,216,26,041,30*6F
$BDGSV,2,2,08,221,88,312,15,222,30,068,33,234,48,226,48,236,16,065,33*6A
$GPGSA,A,3,03,04,19,09,17,06,28,02,21,,,,1.0,0.4,0.8*32
$GNGSA,A,3,69,71,78,85,86,,,,,,,,1.0,0.4,0.8*24
$GAGSA,A,3,103,105,108,113,115,,,,,,,,1.0,0.4,0.8*17
$BDGSA,A,3,209,212,214,,,,,,,,,,1.0,0.4,0.8*13
$GPRMC,094036.000,A,5154.3032,N,01028.7499,E,16.5,305.5,260923,,,A*54
$GPGGA,094037.000,5154.3056,N,01028.7445,E,1,23,0.4,206.3,M,47.3,M,,*5B
$GPVTG,306.7,T,,M,13.8,N,25.6,K,A*04
$GPGSV,3,1,11,01,20,143,40,02,16,148,40,03,70,074,29,04,63,188,39*70
$GPGSV,3,2,11,06,29,308,32,09,35,213,43,17,34,245,44,19,37,274,40*7C
$GPGSV,3,3,11,21,09,146,26,28,21,043,30,31,31,072,28*46
$GLGSV,2,1,07,69,30,050,36,71,27,243,44,78,15,018,39,79,15,069,31*64
$GLGSV,2,2,07,84,15,165,23,85,66,213,43,86,45,315,26*5F
$GAGSV,2,1,06,103,61,198,33,105,56,067,32,108,13,219,38,113,23,311,29*6F
$GAGSV,2,2,06,115,72,271,35,134,45,153,35*6A
$BDGSV,2,1,08,209,39,062,28,212,32,189,35,214,09,249,32,216,26,041,30*6D
$BDGSV,2,2,08,221,88,312,14,222,30,068,33,234,48,226,48,236,16,065,33*6B
$GPGSA,A,3,03,04,19,09,17,06,28,02,21,,,,1.0,0.4,0.8*32
$GNGSA,A,3,69,71,79,85,86,,,,,,,,1.0,0.4,0.8*25
$GAGSA,A,3,103,105,108,113,115,,,,,,,,1.0,0.4,0.8*17
$BDGSA,A,3,209,212,214,216,,,,,,,,,1.0,0.4,0.8*26
$GPRMC,094037.000,A,5154.3056,N,01028.7445,E,13.8,306.7,260923,,,A*5F
$GPGGA,094038.000,5154.3076,N,01028.7403,E,1,24,0.4,206.8,M,47.3,M,,*58
$GPVTG,309.0,T,,M,10.9,N,20.3,K,A*0E
$GPGSV,3,1,11,01,20,143,40,02,16,148,40,03,70,074,29,04,63,188,39*70
$GPGSV,3,2,11,06,29,308,32,09,35,213,43,17,34,245,45,19,37,274,41*7C
$GPGSV,3,3,11,21,09,146,26,28,21,043,30,31,31,072,26*48
$GLGSV,2,1,07,69,30,050,36,71,27,243,44,78,15,018,38,79,15,069,30*64
$GLGSV,2,2,07,84,15,165,22,85,66,213,43,86,45,315,26*5E
$GAGSV,2,1,06,103,61,198,33,105,56,067,32,108,13,219,38,113,23,311,29*6F
$GAGSV,2,2,06,115,72,271,35,134,45,153,36*69
$BDGSV,2,1,08,209,39,062,28,212,32,189,35,214,09,249,32,216,26,041,30*6D
$BDGSV,2,2,08,221,88,312,13,222,30,068,33,234,48,226,48,236,16,065,33*6C
$GPGSA,A,3,03,04,19,09,17,06,28,02,21,,,,0.8,0.4,0.8*3B
$GNGSA,A,3,69,71,78,79,85,86,,,,,,,0.8,0.4,0.8*23
$GAGSA,A,3,103,105,108,113,115,,,,,,,,0.8,0.4,0.8*1E
$BDGSA,A,3,209,212,214,216,,,,,,,,,0.8,0.4,0.8*2F
$GPRMC,094038.000,A,5154.3076,N,01028.7403,E,10.9,309.0,260923,,,A*5A
$GPGGA,094039.000,5154.3094,N,01028.7371,E,1,23,0.4,206.6,M,47.3,M,,*5E
$GPVTG,310.6,T,,M,9.3,N,17.2,K,A*37
$GPGSV,3,1,11,01,20,143,40,02,16,148,39,03,70,074,29,04,63,188,39*7E
$GPGSV,3,2,11,06,29,308,32,09,35,213,43,17,34,245,45,19,37,274,41*7C
$GPGSV,3,3,11,21,09,146,26,28,21,043,30,31,31,072,25*4B
$GLGSV,2,1,07,69,30,050,36,71,27,243,44,78,15,018,37,79,15,069,30*6B
$GLGSV,2,2,07,84,15,165,20,85,66,213,43,86,45,315,29*53
$GAGSV,2,1,06,103,61,198,33,105,56,067,32,108,13,219,38,113,23,311,29*6F
$GAGSV,2,2,06,115,72,271,35,134,45,153,36*69
$BDGSV,2,1,08,209,39,062,28,212,32,189,35,214,09,249,31,216,26,041,30*6E
$BDGSV,2,2,08,221,88,312,12,222,30,068,32,234,48,226,48,236,16,065,33*6C
$GPGSA,A,3,03,04,19,09,17,06,28,02,21,,,,1.0,0.4,0.8*32
$GNGSA,A,3,69,71,78,85,86,,,,,,,,1.0,0.4,0.8*24
$GAGSA,A,3,103,105,108,113,115,,,,,,,,1.0,0.4,0.8*17
$BDGSA,A,3,209,212,214,216,,,,,,,,,1.0,0.4,0.8*26
$GPRMC,094039.000,A,5154.3094,N,01028.7371,E,9.3,310.6,260923,,,A*69
$GPGGA,094040.000,5154.3108,N,01028.7339,E,1,23,0.4,206.4,M,47.3,M,,*5A
$GPVTG,310.0,T,,M,8.3,N,15.4,K,A*34
$GPGSV,3,1,11,01,20,143,40,02,16,148,39,03,70,074,29,04,63,188,39*7E
$GPGSV,3,2,11,06,29,308,32,09,35,213,43,17,34,245,45,19,37,274,42*7F
$GPGSV,3,3,11,21,09,146,26,28,21,043,30,31,31,072,23*4D
$GLGSV,2,1,07,69,30,050,36,71,27,243,44,78,15,018,36,79,15,069,30*6A
$GLGSV,2,2,07,84,15,165,19,85,66,213,43,86,45,315,30*51
$GAGSV,2,1,06,103,61,198,34,105,56,067,31,108,13,219,38,113,23,311,28*6A
$GAGSV,2,2,06,115,72,271,35,134,45,153,36*69
$BDGSV,2,1,07,209,39,062,27,212,32,189,35,214,09,249,30,216,26,041,30*6F
$BDGSV,2,2,07,222,30,068,32,234,48,226,48,236,16,065,33*61
$GPGSA,A,3,03,04,19,09,17,06,02,21,,,,,0.8,0.4,0.8*31
$GNGSA,A,3,69,71,78,79,85,86,,,,,,,0.8,0.4,0.8*23
$GAGSA,A,3,103,105,108,113,115,,,,,,,,0.8,0.4,0.8*1E
$BDGSA,A,3,209,212,214,216,,,,,,,,,0.8,0.4,0.8*2F
$GPRMC,094040.000,A,5154.3108,N,01028.7339,E,8.3,310.0,260923,,,A*68
$GPGGA,094041.000,5154.3122,N,01028.7311,E,1,23,0.4,206.5,M,47.3,M,,*58
$GPVTG,306.4,T,,M,7.2,N,13.3,K,A*38
$GPGSV,3,1,11,01,20,143,40,02,16,148,39,03,70,074,28,04,63,188,39*7F
$GPGSV,3,2,11,06,29,308,32,09,35,213,43,17,34,245,45,19,37,274,42*7F
$GPGSV,3,3,11,21,09,146,26,28,21,043,30,31,31,072,22*4C
$GLGSV,2,1,07,69,30,050,35,71,27,243,44,78,15,018,36,79,15,069,30*69
$GLGSV,2,2,07,84,15,165,17,85,66,213,43,86,45,315,30*5F
$GAGSV,2,1,06,103,61,198,34,105,56,067,31,108,13,219,38,113,23,311,28*6A
$GAGSV,2,2,06,115,72,271,35,134,45,153,35*6A
$BDGSV,2,1,07,209,39,062,27,212,32,189,35,214,09,249,30,216,26,041,29*67
$BDGSV,2,2,07,222,30,068,32,234,48,226,48,236,16,065,32*60
$GPGSA,A,3,03,04,19,09,17,06,28,02,21,,,,0.8,0.4,0.8*3B
$GNGSA,A,3,69,71,78,79,85,86,,,,,,,0.8,0.4,0.8*23
$GAGSA,A,3,103,105,108,113,115,,,,,,,,0.8,0.4,0.8*1E
$BDGSA,A,3,212,214,216,,,,,,,,,,0.8,0.4,0.8*14
$GPRMC,094041.000,A,5154.3122,N,01028.7311,E,7.2,306.4,260923,,,A*66
$GPGGA,094042.000,5154.3132,N,01028.7286,E,1,24,0.4,206.5,M,47.3,M,,*52
$GPVTG,303.8,T,,M,5.9,N,11.0,K,A*39
$GPGSV,3,1,11,01,20,143,39,02,16,148,39,03,70,074,28,04,63,188,39*71
$GPGSV,3,2,11,06,29,308,32,09,35,213,43,17,34,245,46,19,37,274,42*7C
$GPGSV,3,3,11,21,09,146,26,28,21,043,36,31,31,072,20*48
$GLGSV,2,1,07,69,30,050,35,71,27,243,45,78,15,018,36,79,15,069,30*68
$GLGSV,2,2,07,84,15,165,16,85,66,213,43,86,45,315,30*5E
$GAGSV,2,1,06,103,61,198,34,105,56,067,31,108,13,219,38,113,23,311,28*6A
$GAGSV,2,2,06,115,72,271,35,134,45,153,36*69
$BDGSV,2,1,07,209,39,062,27,212,32,189,35,214,09,249,29,216,26,041,29*6F
$BDGSV,2,2,07,222,30,068,32,234,48,226,48,236,16,065,31*63
$GPGSA,A,3,03,04,19,09,17,06,28,02,21,,,,0.8,0.4,0.8*3B
$GNGSA,A,3,69,71,78,79,85,86,,,,,,,0.8,0.4,0.8*23
$GAGSA,A,3,103,105,108,113,115,,,,,,,,0.8,0.4,0.8*1E
$BDGSA,A,3,209,212,214,216,,,,,,,,,0.8,0.4,0.8*2F
$GPRMC,094042.000,A,5154.3132,N,01028.7286,E,5.9,303.8,260923,,,A*6B
$GPGGA,094043.000,5154.3140,N,01028.7266,E,1,24,0.4,206.4,M,47.3,M,,*59
$GPVTG,301.9,T,,M,4.0,N,7.5,K,A*00
$GPGSV,3,1,11,01,20,143,39,02,16,148,38,03,70,074,28,04,63,188,39*70
$GPGSV,3,2,11,06,29,308,31,09,35,213,43,17,34,245,46,19,37,274,42*7F
$GPGSV,3,3,11,21,09,146,26,28,21,043,36,31,31,072,19*42
$GLGSV,2,1,07,69,30,050,34,71,27,243,45,78,15,018,35,79,15,069,30*6A
$GLGSV,2,2,07,84,15,165,14,85,66,213,43,86,45,315,30*5C
$GAGSV,2,1,06,103,61,198,34,105,56,067,31,108,13,219,38,113,23,311,28*6A
$GAGSV,2,2,06,115,72,271,35,134,45,153,40*68
$BDGSV,2,1,07,209,39,062,27,212,32,189,34,214,09,249,28,216,26,041,29*6F
$BDGSV,2,2,07,222,30,068,38,234,48,226,48,236,16,065,31*69
$GPGSA,A,3,03,04,19,09,17,06,28,02,21,,,,0.8,0.4,0.8*3B
$GNGSA,A,3,69,71,78,79,85,86,,,,,,,0.8,0.4,0.8*23
$GAGSA,A,3,103,105,108,113,115,,,,,,,,0.8,0.4,0.8*1E
$BDGSA,A,3,209,212,214,216,,,,,,,,,0.8,0.4,0.8*2F
$GPRMC,094043.000,A,5154.3140,N,01028.7266,E,4.0,301.9,260923,,,A*6A
$GPGGA,094044.000,5154.3142,N,01028.7257,E,1,21,0.4,206.4,M,47.3,M,,*5B
$GPVTG,300.0,T,,M,0.5,N,0.9,K,A*02
$GPGSV,3,1,11,01,20,143,39,02,16,148,38,03,70,074,28,04,63,188,39*70
$GPGSV,3,2,11,06,29,308,31,09,35,213,43,17,34,245,46,19,37,274,42*7F
$GPGSV,3,3,11,21,09,146,26,28,21,043,36,31,31,072,17*4C
$GLGSV,2,1,07,69,30,050,34,71,27,243,45,78,15,018,35,79,15,069,30*6A
$GLGSV,2,2,07,84,15,165,14,85,66,213,43,86,45,315,30*5C
$GAGSV,2,1,06,103,61,198,34,105,56,067,31,108,13,219,39,113,23,311,28*6B
$GAGSV,2,2,06,115,72,271,34,134,45,153,42*6B
$BDGSV,2,1,07,209,39,062,27,212,32,189,35,214,09,249,28,216,26,041,29*6E
$BDGSV,2,2,07,222,30,068,41,234,48,226,48,236,16,065,30*66
$GPGSA,A,3,03,04,19,09,17,06,28,02,21,,,,1.0,0.4,0.8*32
$GNGSA,A,3,71,78,85,,,,,,,,,,1.0,0.4,0.8*25
$GAGSA,A,3,103,105,108,113,115,,,,,,,,1.0,0.4,0.8*17
$BDGSA,A,3,209,212,214,216,,,,,,,,,1.0,0.4,0.8*26
$GPRMC,094044.000,A,5154.3142,N,01028.7257,E,0.5,300.0,260923,,,A*64
$GPGGA,094045.000,5154.3142,N,01028.7255,E,1,24,0.4,206.2,M,47.3,M,,*5B
$GPVTG,291.4,T,,M,0.8,N,1.4,K,A*0E
$GPGSV,3,1,11,01,20,143,39,02,16,148,38,03,70,074,28,04,63,188,39*70
$GPGSV,3,2,11,06,29,308,31,09,35,213,43,17,34,245,46,19,37,274,41*7C
$GPGSV,3,3,11,21,09,146,26,28,21,043,35,31,31,072,16*4E
$GLGSV,2,1,07,69,30,050,34,71,27,243,45,78,15,018,35,79,15,069,30*6A
$GLGSV,2,2,07,84,15,165,13,85,66,213,43,86,45,315,29*53
$GAGSV,2,1,06,103,61,198,34,105,56,067,31,108,13,219,39,113,23,311,28*6B
$GAGSV,2,2,06,115,72,271,34,134,45,153,42*6B
$BDGSV,2,1,07,209,39,062,32,212,32,189,35,214,09,249,27,216,26,041,29*65
$BDGSV,2,2,07,222,30,068,41,234,48,226,48,236,16,065,30*66
$GPGSA,A,3,03,04,19,09,17,06,28,02,21,,,,0.8,0.4,0.8*3B
$GNGSA,A,3,69,71,78,79,85,86,,,,,,,0.8,0.4,0.8*23
$GAGSA,A,3,103,105,108,113,115,,,,,,,,0.8,0.4,0.8*1E
$BDGSA,A,3,209,212,214,216,,,,,,,,,0.8,0.4,0.8*2F
$GPRMC,094045.000,A,5154.3142,N,01028.7255,E,0.8,291.4,260923,,,A*67
$GPGGA,094046.000,5154.3142,N,01028.7255,E,1,23,0.4,206.3,M,47.3,M,,*5E
$GPVTG,289.6,T,,M,0.0,N,0.0,K,A*08
$GPGSV,3,1,11,01,20,143,38,02,16,148,38,03,70,074,29,04,63,188,39*70
$GPGSV,3,2,11,06,29,308,31,09,35,213,43,17,34,245,46,19,37,274,41*7C
$GPGSV,3,3,11,21,09,146,26,28,21,043,35,31,31,072,14*4C
$GLGSV,2,1,07,69,29,050,33,71,28,243,45,78,15,018,35,79,15,069,29*62
$GLGSV,2,2,07,84,14,165,12,85,65,213,43,86,46,314,29*52
$GAGSV,2,1,06,103,61,198,34,105,56,067,31,108,13,219,39,113,23,311,27*64
$GAGSV,2,2,06,115,72,271,34,134,45,153,40*69
$BDGSV,2,1,08,209,39,062,32,212,32,189,35,214,09,249,27,216,26,041,29*6A
$BDGSV,2,2,08,221,88,312,28,222,30,068,41,234,48,226,48,236,16,065,30*62
$GPGSA,A,3,03,04,19,09,17,06,28,02,21,,,,1.0,0.4,0.8*32
$GNGSA,A,3,69,71,78,85,86,,,,,,,,1.0,0.4,0.8*24
$GAGSA,A,3,103,105,108,113,115,,,,,,,,1.0,0.4,0.8*17
$BDGSA,A,3,209,212,214,234,,,,,,,,,1.0,0.4,0.8*26
$GPRMC,094046.000,A,5154.3142,N,01028.7255,E,0.0,289.6,260923,,,A*67
$GPGGA,094047.000,5154.3142,N,01028.7255,E,1,23,0.4,206.2,M,47.3,M,,*5E
$GPVTG,288.5,T,,M,0.0,N,0.0,K,A*0A
$GPGSV,3,1,11,01,20,143,38,02,16,148,38,03,70,074,35,04,63,188,40*73
$GPGSV,3,2,11,06,29,308,31,09,35,213,43,17,34,245,46,19,37,274,41*7C
$GPGSV,3,3,11,21,09,146,26,28,21,043,35,31,31,072,13*4B
$GLGSV,2,1,06,69,29,050,33,71,28,243,45,78,15,018,35,79,15,069,29*63
$GLGSV,2,2,06,85,65,213,43,86,46,314,28*6A
$GAGSV,2,1,06,103,61,198,34,105,56,067,35,108,13,219,39,113,23,311,27*60
$GAGSV,2,2,06,115,72,271,35,134,45,153,39*66
$BDGSV,2,1,08,209,39,062,32,212,32,189,35,214,09,249,26,216,26,041,29*6B
$BDGSV,2,2,08,221,88,312,32,222,30,068,41,234,48,226,48,236,16,065,29*61
$GPGSA,A,3,03,04,19,09,17,06,28,21,,,,,0.8,0.4,0.6*37
$GNGSA,A,3,69,71,78,79,85,,,,,,,,0.8,0.4,0.6*23
$GAGSA,A,3,103,105,108,113,115,,,,,,,,0.8,0.4,0.6*10
$BDGSA,A,3,209,212,214,221,234,,,,,,,,0.8,0.4,0.6*10
$GPRMC,094047.000,A,5154.3142,N,01028.7255,E,0.0,288.5,260923,,,A*64
$GPGGA,094048.000,5154.3142,N,01028.7255,E,1,24,0.4,206.2,M,47.3,M,,*56
$GPVTG,289.6,T,,M,0.0,N,0.0,K,A*08
$GPGSV,3,1,11,01,20,143,38,02,16,148,38,03,70,074,34,04,63,188,40*72
$GPGSV,3,2,11,06,29,308,31,09,35,213,43,17,34,245,46,19,37,274,41*7C
$GPGSV,3,3,11,21,09,146,26,28,21,043,35,31,31,072,13*4B
$GLGSV,2,1,06,69,29,050,33,71,28,243,45,78,15,018,35,79,15,069,29*63
$GLGSV,2,2,06,85,65,213,43,86,46,314,28*6A
$GAGSV,2,1,06,103,61,198,34,105,56,067,35,108,13,219,39,113,23,311,27*60
$GAGSV,2,2,06,115,72,270,35,134,45,153,37*69
$BDGSV,2,1,08,209,39,062,32,212,32,189,36,214,09,249,26,216,26,041,29*68
$BDGSV,2,2,08,221,88,312,33,222,30,068,41,234,48,226,48,236,16,065,29*60
$GPGSA,A,3,03,04,19,09,17,06,28,02,21,,,,0.8,0.4,0.6*35
$GNGSA,A,3,69,71,78,79,85,,,,,,,,0.8,0.4,0.6*23
$GAGSA,A,3,103,105,108,113,115,,,,,,,,0.8,0.4,0.6*10
$BDGSA,A,3,209,212,214,221,234,,,,,,,,0.8,0.4,0.6*10
$GPRMC,094048.000,A,5154.3142,N,01028.7255,E,0.0,289.6,260923,,,A*69
$GPGGA,094049.000,5154.3142,N,01028.7255,E,1,24,0.4,206.2,M,47.3,M,,*57
$GPVTG,290.1,T,,M,0.0,N,0.0,K,A*07
$GPGSV,3,1,11,01,20,143,38,02,16,148,38,03,70,074,34,04,63,188,40*72
$GPGSV,3,2,11,06,29,308,31,09,35,213,43,17,33,245,46,19,37,274,41*7B
$GPGSV,3,3,11,21,09,146,26,28,21,043,35,31,31,072,12*4A
$GLGSV,2,1,06,69,29,050,33,71,28,243,45,78,15,018,35,79,15,069,29*63
$GLGSV,2,2,06,85,65,213,43,86,46,314,27*65
$GAGSV,2,1,06,103,61,198,35,105,56,067,35,108,13,219,39,113,23,311,27*61
$GAGSV,2,2,06,115,72,270,35,134,45,153,36*68
$BDGSV,2,1,08,209,39,062,32,212,32,189,36,214,09,249,26,216,26,041,29*68
$BDGSV,2,2,08,221,88,312,33,222,30,068,41,234,48,226,48,236,16,065,29*60
$GPGSA,A,3,03,04,19,09,17,06,28,02,21,,,,0.8,0.4,0.6*35
$GNGSA,A,3,69,71,78,79,85,,,,,,,,0.8,0.4,0.6*23
$GAGSA,A,3,103,105,108,113,115,,,,,,,,0.8,0.4,0.6*10
$BDGSA,A,3,209,212,214,221,234,,,,,,,,0.8,0.4,0.6*10
$GPRMC,094049.000,A,5154.3142,N,01028.7255,E,0.0,290.1,260923,,,A*67
$GPGGA,094050.000,5154.3142,N,01028.7255,E,1,24,0.4,206.2,M,47.3,M,,*5F
$GPVTG,290.4,T,,M,0.0,N,0.0,K,A*02
$GPGSV,3,1,10,01,20,143,37,02,16,148,38,03,70,074,34,04,63,188,40*7C
$GPGSV,3,2,10,06,29,308,31,09,35,213,43,17,33,245,46,19,37,274,41*7A
$GPGSV,3,3,10,21,09,146,26,28,21,043,34*7C
$GLGSV,2,1,06,69,29,050,36,71,28,243,45,78,15,018,35,79,15,069,30*6E
$GLGSV,2,2,06,85,65,213,42,86,46,314,26*65
$GAGSV,2,1,06,103,61,198,35,105,56,067,35,108,13,219,39,113,23,311,27*61
$GAGSV,2,2,06,115,72,270,35,134,45,153,34*6A
$BDGSV,2,1,08,209,39,062,32,212,32,189,36,214,09,249,25,216,26,041,29*6B
$BDGSV,2,2,08,221,88,312,34,222,30,068,40,234,48,226,49,236,16,065,29*67
$GPGSA,A,3,03,04,19,09,17,06,28,21,,,,,0.8,0.4,0.6*37
$GNGSA,A,3,69,71,78,79,85,86,,,,,,,0.8,0.4,0.6*2D
$GAGSA,A,3,103,105,108,113,115,,,,,,,,0.8,0.4,0.6*10
$BDGSA,A,3,209,212,214,221,234,,,,,,,,0.8,0.4,0.6*10
$GPRMC,094050.000,A,5154.3142,N,01028.7255,E,0.0,290.4,260923,,,A*6A
$GPGGA,094051.000,5154.3142,N,01028.7255,E,1,24,0.4,206.2,M,47.3,M,,*5E
$GPVTG,290.5,T,,M,0.0,N,0.0,K,A*03
$GPGSV,3,1,10,01,20,143,37,02,16,148,38,03,70,074,34,04,63,188,40*7C
$GPGSV,3,2,10,06,29,308,31,09,35,213,43,17,33,245,47,19,37,274,41*7B
$GPGSV,3,3,10,21,09,146,26,28,21,043,34*7C
$GLGSV,2,1,06,69,29,050,36,71,28,243,45,78,15,018,36,79,15,069,30*6D
$GLGSV,2,2,06,85,65,213,42,86,46,314,26*65
$GAGSV,2,1,06,103,61,198,35,105,56,067,35,108,13,219,39,113,23,311,26*60
$GAGSV,2,2,06,115,72,270,35,134,45,153,33*6D
$BDGSV,2,1,08,209,39,062,32,212,32,189,36,214,09,249,25,216,26,041,28*6A
$BDGSV,2,2,08,221,88,312,34,222,30,068,40,234,48,226,49,236,16,065,29*67
$GPGSA,A,3,03,04,19,09,17,06,28,21,,,,,0.8,0.4,0.6*37
$GNGSA,A,3,69,71,78,79,85,86,,,,,,,0.8,0.4,0.6*2D
$GAGSA,A,3,103,105,108,113,115,,,,,,,,0.8,0.4,0.6*10
$BDGSA,A,3,209,212,214,221,234,,,,,,,,0.8,0.4,0.6*10
$GPRMC,094051.000,A,5154.3142,N,01028.7255,E,0.0,290.5,260923,,,A*6A
$GPGGA,094052.000,5154.3142,N,01028.7255,E,1,24,0.4,206.2,M,47.3,M,,*5D
$GPVTG,290.6,T,,M,0.0,N,0.0,K,A*00
$GPGSV,3,1,10,01,20,143,37,02,16,148,38,03,70,074,34,04,63,188,40*7C
$GPGSV,3,2,10,06,29,308,31,09,35,213,43,17,33,245,47,19,37,274,41*7B
$GPGSV,3,3,10,21,09,146,26,28,21,043,34*7C
$GLGSV,2,1,06,69,29,050,36,71,28,243,45,78,15,018,36,79,15,069,31*6C
$GLGSV,2,2,06,85,65,213,42,86,46,314,26*65
$GAGSV,2,1,06,103,61,198,35,105,56,066,35,108,13,219,39,113,23,311,26*61
$GAGSV,2,2,06,115,72,270,35,134,45,153,31*6F
$BDGSV,2,1,08,209,39,062,32,212,32,189,36,214,09,249,25,216,26,041,28*6A
$BDGSV,2,2,08,221,88,312,35,222,30,068,40,234,48,226,49,236,16,065,29*66
$GPGSA,A,3,03,04,19,09,17,06,28,21,,,,,0.8,0.4,0.6*37
$GNGSA,A,3,69,71,78,79,85,86,,,,,,,0.8,0.4,0.6*2D
$GAGSA,A,3,103,105,108,113,115,,,,,,,,0.8,0.4,0.6*10
$BDGSA,A,3,209,212,214,221,234,,,,,,,,0.8,0.4,0.6*10
$GPRMC,094052.000,A,5154.3142,N,01028.7255,E,0.0,290.6,260923,,,A*6A
$GPGGA,094053.000,5154.3142,N,01028.7255,E,1,24,0.4,206.2,M,47.3,M,,*5C
$GPVTG,290.6,T,,M,0.0,N,0.0,K,A*00
$GPGSV,3,1,10,01,20,143,37,02,16,148,38,03,70,074,34,04,63,188,40*7C
$GPGSV,3,2,10,06,30,308,31,09,35,213,42,17,33,245,47,19,37,274,40*73
$GPGSV,3,3,10,21,09,146,26,28,21,043,34*7C
$GLGSV,2,1,06,69,29,050,36,71,28,243,45,78,15,018,37,79,15,069,31*6D
$GLGSV,2,2,06,85,65,213,42,86,46,314,25*66
$GAGSV,2,1,06,103,61,198,35,105,56,066,35,108,13,219,39,113,23,311,26*61
$GAGSV,2,2,06,115,72,270,35,134,45,153,30*6E
$BDGSV,2,1,08,209,39,062,32,212,32,189,37,214,10,249,24,216,26,041,28*62
$BDGSV,2,2,08,221,88,312,35,222,30,068,40,234,48,226,49,236,16,065,29*66
$GPGSA,A,3,03,04,19,09,17,06,28,21,,,,,0.8,0.4,0.6*37
$GNGSA,A,3,69,71,78,79,85,86,,,,,,,0.8,0.4,0.6*2D
$GAGSA,A,3,103,105,108,113,115,,,,,,,,0.8,0.4,0.6*10
$BDGSA,A,3,209,212,214,221,234,,,,,,,,0.8,0.4,0.6*10
$GPRMC,094053.000,A,5154.3142,N,01028.7255,E,0.0,290.6,260923,,,A*6B
$GPGGA,094054.000,5154.3142,N,01028.7255,E,1,24,0.4,206.2,M,47.3,M,,*5B
