$GPGGA,195625.000,5147.9485,N,01020.9925,E,1,13,0.8,595.7,M,47.4,M,,*50
$GPVTG,9.9,T,,M,0.0,N,0.0,K,A*0D
$GPGSV,2,1,06,10,17,288,30,12,55,232,23,17,30,051,27,23,09,252,24*74
$GPGSV,2,2,06,24,86,157,27,25,14,241,25*73
$GLGSV,1,1,03,75,72,331,27,76,23,268,27,85,10,133,17*57
$BDGSV,2,1,06,221,36,270,31,222,20,213,24,226,05,270,28,227,22,046,25*66
$BDGSV,2,2,06,230,33,103,26,236,61,082,30*60
$GPGSA,A,3,24,17,10,25,23,,,,,,,,1.4,0.8,1.0*39
$GNGSA,A,3,75,76,,,,,,,,,,,1.4,0.8,1.0*23
$BDGSA,A,3,221,222,226,227,230,236,,,,,,,1.4,0.8,1.0*2B
$GPRMC,195625.000,A,5147.9485,N,01020.9925,E,0.0,9.9,160923,,,A*6E
$GPGGA,195626.000,5147.9485,N,01020.9925,E,1,13,0.8,596.5,M,47.4,M,,*52
$GPVTG,354.4,T,,M,1.1,N,2.1,K,A*08
$GPGSV,2,1,06,10,17,288,30,12,55,232,21,17,30,051,27,23,09,252,25*77
$GPGSV,2,2,06,24,86,157,27,25,14,241,25*73
$GLGSV,1,1,03,75,72,331,27,76,23,268,27,85,10,133,15*55
$BDGSV,2,1,06,221,36,270,31,222,20,213,24,226,05,270,28,227,22,046,25*66
$BDGSV,2,2,06,230,33,103,26,236,61,082,30*60
$GPGSA,A,3,24,17,10,25,23,,,,,,,,1.4,0.8,1.0*39
$GNGSA,A,3,75,76,,,,,,,,,,,1.4,0.8,1.0*23
$BDGSA,A,3,221,222,226,227,230,236,,,,,,,1.4,0.8,1.0*2B
$GPRMC,195626.000,A,5147.9485,N,01020.9925,E,1.1,354.4,160923,,,A*6B
$GPGGA,195627.000,5147.9490,N,01020.9922,E,1,12,1.0,598.2,M,47.4,M,,*51
$GPVTG,346.2,T,,M,1.5,N,2.8,K,A*00
$GPGSV,2,1,06,10,17,287,29,12,55,232,20,17,30,051,27,23,09,252,25*71
$GPGSV,2,2,06,24,86,157,27,25,14,241,25*73
$GLGSV,1,1,03,75,72,331,27,76,23,268,27,85,10,133,14*54
$BDGSV,2,1,06,221,36,270,31,222,20,213,24,226,05,270,28,227,22,046,25*66
$BDGSV,2,2,06,230,33,103,26,236,61,082,30*60
$GPGSA,A,3,24,17,10,25,23,,,,,,,,1.6,1.0,1.2*30
$GNGSA,A,3,76,,,,,,,,,,,,1.6,1.0,1.2*28
$BDGSA,A,3,221,222,226,227,230,236,,,,,,,1.6,1.0,1.2*22
$GPRMC,195627.000,A,5147.9490,N,01020.9922,E,1.5,346.2,160923,,,A*68
$GPGGA,195628.000,5147.9487,N,01020.9926,E,1,11,1.0,598.2,M,47.4,M,,*5F
$GPVTG,345.8,T,,M,0.0,N,0.0,K,A*07
$GPGSV,2,1,06,10,17,287,29,12,55,232,18,17,30,051,27,23,09,252,25*7A
$GPGSV,2,2,06,24,86,157,27,25,14,241,23*75
$GLGSV,1,1,03,75,72,331,26,76,23,268,27,85,10,133,13*52
$BDGSV,2,1,06,221,36,270,31,222,20,213,24,226,05,270,28,227,22,046,25*66
$BDGSV,2,2,06,230,33,103,26,236,61,082,30*60
$GPGSA,A,3,24,17,10,23,,,,,,,,,1.6,1.0,1.2*37
$GNGSA,A,3,75,76,,,,,,,,,,,1.6,1.0,1.2*2A
$BDGSA,A,3,221,222,226,230,236,,,,,,,,1.6,1.0,1.2*15
$GPRMC,195628.000,A,5147.9487,N,01020.9926,E,0.0,345.8,160923,,,A*68
$GPGGA,195629.000,5147.9487,N,01020.9926,E,1,11,1.0,598.1,M,47.4,M,,*5D
$GPVTG,345.6,T,,M,0.0,N,0.0,K,A*09
$GPGSV,2,1,07,10,17,287,29,12,55,232,17,17,30,050,27,19,44,079,20*7B
$GPGSV,2,2,07,23,09,252,25,24,86,157,27,25,14,241,22*4F
$GLGSV,1,1,03,75,72,331,26,76,23,268,27,85,10,133,13*52
$BDGSV,2,1,06,221,36,270,31,222,19,213,24,226,05,270,28,227,22,046,24*6D
$BDGSV,2,2,06,230,33,103,26,236,61,082,30*60
$GPGSA,A,3,24,17,10,23,,,,,,,,,1.6,1.0,1.2*37
$GNGSA,A,3,75,76,,,,,,,,,,,1.6,1.0,1.2*2A
$BDGSA,A,3,221,222,226,230,236,,,,,,,,1.6,1.0,1.2*15
$GPRMC,195629.000,A,5147.9487,N,01020.9926,E,0.0,345.6,160923,,,A*67
$GPGGA,195630.000,5147.9485,N,01020.9925,E,1,11,1.4,599.1,M,47.4,M,,*51
$GPVTG,345.5,T,,M,0.0,N,0.0,K,A*0A
$GPGSV,2,1,07,10,17,287,30,12,55,232,19,17,30,050,27,19,44,079,21*7C
$GPGSV,2,2,07,23,09,252,25,24,86,157,27,25,14,241,22*4F
$GLGSV,1,1,02,75,72,331,26,76,23,268,27*6C
$BDGSV,2,1,06,221,36,270,31,222,19,213,24,226,05,270,28,227,22,046,24*6D
$BDGSV,2,2,06,230,33,103,26,236,61,082,30*60
$GPGSA,A,3,24,19,17,10,23,,,,,,,,1.8,1.4,1.2*35
$GNGSA,A,3,75,76,,,,,,,,,,,1.8,1.4,1.2*20
$BDGSA,A,3,221,226,230,236,,,,,,,,,1.8,1.4,1.2*2D
$GPRMC,195630.000,A,5147.9485,N,01020.9925,E,0.0,345.5,160923,,,A*6D
$GPGGA,195631.000,5147.9492,N,01020.9921,E,1,16,0.8,599.6,M,47.4,M,,*5F
$GPVTG,345.4,T,,M,0.0,N,0.0,K,A*0B
$GPGSV,2,1,07,10,17,287,30,12,55,232,20,17,30,050,27,19,44,079,21*76
$GPGSV,2,2,07,23,09,252,25,24,85,155,27,25,14,241,22*4E
$GLGSV,1,1,03,66,36,316,21,75,72,331,26,76,23,268,27*5F
$BDGSV,2,1,06,221,36,270,31,222,19,213,24,226,05,270,28,227,22,046,24*6D
$BDGSV,2,2,06,230,33,103,26,236,61,082,30*60
$GPGSA,A,3,24,12,19,17,10,25,23,,,,,,1.2,0.8,1.0*34
$GNGSA,A,3,66,75,76,,,,,,,,,,1.2,0.8,1.0*25
$BDGSA,A,3,221,222,226,227,230,236,,,,,,,1.2,0.8,1.0*2D
$GPRMC,195631.000,A,5147.9492,N,01020.9921,E,0.0,345.4,160923,,,A*6F
$GPGGA,195632.000,5147.9492,N,01020.9921,E,1,15,0.8,599.6,M,47.4,M,,*5F
$GPVTG,345.5,T,,M,0.0,N,0.0,K,A*0A
$GPGSV,2,1,07,10,17,287,30,12,55,232,21,17,30,050,27,19,44,079,22*74
$GPGSV,2,2,07,23,09,252,25,24,85,155,27,25,14,241,22*4E
$GLGSV,1,1,03,66,36,316,20,75,72,331,26,76,23,268,27*5E
$BDGSV,2,1,06,221,36,270,31,222,19,213,24,226,05,270,29,227,22,046,24*6C
$BDGSV,2,2,06,230,33,102,26,236,61,082,30*61
$GPGSA,A,3,24,12,19,17,10,25,23,,,,,,1.4,0.8,1.0*32
$GNGSA,A,3,66,75,76,,,,,,,,,,1.4,0.8,1.0*23
$BDGSA,A,3,221,222,226,230,236,,,,,,,,1.4,0.8,1.0*1C
$GPRMC,195632.000,A,5147.9492,N,01020.9921,E,0.0,345.5,160923,,,A*6D
$GPGGA,195633.000,5147.9492,N,01020.9921,E,1,15,0.8,599.6,M,47.4,M,,*5E
$GPVTG,345.6,T,,M,0.0,N,0.0,K,A*09
$GPGSV,2,1,07,10,17,287,30,12,55,232,20,17,30,050,27,19,44,079,22*75
$GPGSV,2,2,07,23,09,252,25,24,85,155,27,25,14,241,22*4E
$GLGSV,1,1,03,66,36,316,20,75,72,331,26,76,23,268,27*5E
$BDGSV,2,1,06,221,36,270,31,222,19,213,24,226,05,270,29,227,22,046,24*6C
$BDGSV,2,2,06,230,33,102,26,236,61,082,30*61
$GPGSA,A,3,24,12,19,17,10,25,23,,,,,,1.4,0.8,1.0*32
$GNGSA,A,3,66,75,76,,,,,,,,,,1.4,0.8,1.0*23
$BDGSA,A,3,221,222,226,230,236,,,,,,,,1.4,0.8,1.0*1C
$GPRMC,195633.000,A,5147.9492,N,01020.9921,E,0.0,345.6,160923,,,A*6F
$GPGGA,195634.000,5147.9492,N,01020.9921,E,1,15,0.8,599.6,M,47.4,M,,*59
$GPVTG,345.6,T,,M,0.0,N,0.0,K,A*09
$GPGSV,2,1,07,10,17,287,30,12,55,232,20,17,30,050,27,19,44,079,22*75
$GPGSV,2,2,07,23,09,252,25,24,85,155,27,25,14,241,22*4E
$GLGSV,1,1,03,66,36,316,19,75,72,331,26,76,23,268,27*54
$BDGSV,2,1,06,221,36,270,31,222,19,213,24,226,05,270,29,227,22,046,24*6C
$BDGSV,2,2,06,230,33,102,26,236,61,082,30*61
$GPGSA,A,3,24,12,19,17,10,25,23,,,,,,1.4,0.8,1.0*32
$GNGSA,A,3,75,76,,,,,,,,,,,1.4,0.8,1.0*23
$BDGSA,A,3,221,222,226,227,230,236,,,,,,,1.4,0.8,1.0*2B
$GPRMC,195634.000,A,5147.9492,N,01020.9921,E,0.0,345.6,160923,,,A*68
$GPGGA,195635.000,5147.9492,N,01020.9921,E,1,15,0.8,599.6,M,47.4,M,,*58
$GPVTG,345.6,T,,M,0.0,N,0.0,K,A*09
$GPGSV,2,1,07,10,17,287,30,12,55,232,20,17,30,050,27,19,44,079,22*75
$GPGSV,2,2,07,23,09,252,25,24,85,155,27,25,14,241,22*4E
$GLGSV,1,1,03,66,36,316,17,75,72,331,26,76,23,268,27*5A
$BDGSV,2,1,06,221,36,270,31,222,19,213,24,226,05,270,29,227,22,046,24*6C
$BDGSV,2,2,06,230,33,102,26,236,61,082,30*61
$GPGSA,A,3,24,12,19,17,10,25,23,,,,,,1.4,0.8,1.0*32
$GNGSA,A,3,75,76,,,,,,,,,,,1.4,0.8,1.0*23
$BDGSA,A,3,221,222,226,227,230,236,,,,,,,1.4,0.8,1.0*2B
$GPRMC,195635.000,A,5147.9492,N,01020.9921,E,0.0,345.6,160923,,,A*69
$GPGGA,195636.000,5147.9492,N,01020.9921,E,1,14,0.8,599.6,M,47.4,M,,*5A
$GPVTG,345.6,T,,M,0.0,N,0.0,K,A*09
$GPGSV,2,1,07,10,17,287,30,12,55,232,20,17,30,050,27,19,44,079,22*75
$GPGSV,2,2,07,23,09,252,25,24,85,155,27,25,14,241,22*4E
$GLGSV,1,1,03,66,36,316,16,75,72,331,26,76,23,268,27*5B
$BDGSV,2,1,06,221,36,270,31,222,19,213,23,226,05,270,29,227,22,046,23*6C
$BDGSV,2,2,06,230,33,102,26,236,61,082,30*61
$GPGSA,A,3,24,12,17,10,25,23,,,,,,,1.4,0.8,1.0*3A
$GNGSA,A,3,75,76,,,,,,,,,,,1.4,0.8,1.0*23
$BDGSA,A,3,221,222,226,227,230,236,,,,,,,1.4,0.8,1.0*2B
$GPRMC,195636.000,A,5147.9492,N,01020.9921,E,0.0,345.6,160923,,,A*6A
$GPGGA,195637.000,5147.9492,N,01020.9921,E,1,14,0.6,599.6,M,47.4,M,,*55
$GPVTG,345.6,T,,M,0.0,N,0.0,K,A*09
$GPGSV,2,1,08,10,17,287,30,12,55,232,20,13,09,157,26,17,30,050,27*70
$GPGSV,2,2,08,19,44,079,22,23,09,252,25,24,85,155,27,25,14,241,22*77
$GLGSV,1,1,03,66,36,316,14,75,72,331,25,76,23,268,27*5A
$BDGSV,2,1,06,221,36,270,30,222,19,213,23,226,05,270,29,227,22,046,23*6D
$BDGSV,2,2,06,230,33,102,26,236,61,082,30*61
$GPGSA,A,3,24,12,17,10,25,13,23,,,,,,1.2,0.6,1.0*30
$GNGSA,A,3,76,,,,,,,,,,,,1.2,0.6,1.0*29
$BDGSA,A,3,221,222,226,227,230,236,,,,,,,1.2,0.6,1.0*23
$GPRMC,195637.000,A,5147.9492,N,01020.9921,E,0.0,345.6,160923,,,A*6B
$GPGGA,195638.000,5147.9492,N,01020.9921,E,1,14,0.8,599.6,M,47.4,M,,*54
$GPVTG,345.6,T,,M,0.0,N,0.0,K,A*09
$GPGSV,2,1,08,10,17,287,30,12,55,232,20,13,09,157,26,17,30,050,27*70
$GPGSV,2,2,08,19,44,079,22,23,09,252,25,24,85,155,27,25,14,241,22*77
$GLGSV,1,1,03,66,36,316,14,75,72,331,25,76,23,268,27*5A
$BDGSV,2,1,06,221,36,270,30,222,19,213,23,226,05,270,29,227,22,046,23*6D
$BDGSV,2,2,06,230,33,102,26,236,61,082,29*69
$GPGSA,A,3,24,12,19,17,10,25,23,,,,,,1.4,0.8,1.0*32
$GNGSA,A,3,75,,,,,,,,,,,,1.4,0.8,1.0*22
$BDGSA,A,3,221,222,226,227,230,236,,,,,,,1.4,0.8,1.0*2B
$GPRMC,195638.000,A,5147.9492,N,01020.9921,E,0.0,345.6,160923,,,A*64
$GPGGA,195639.000,5147.9492,N,01020.9921,E,1,15,0.8,599.6,M,47.4,M,,*54
$GPVTG,345.6,T,,M,0.0,N,0.0,K,A*09
$GPGSV,3,1,09,10,17,287,30,12,55,232,20,13,09,157,24,15,28,187,24*71
$GPGSV,3,2,09,17,30,050,27,19,44,079,23,23,09,252,25,24,85,155,28*79
$GPGSV,3,3,09,25,14,241,22*45
$GLGSV,1,1,03,66,36,316,13,75,72,331,26,76,23,268,27*5E
$GAGSV,1,1,01,127,85,082,22*6A
$BDGSV,2,1,06,221,36,270,32,222,19,213,23,226,05,270,29,227,22,046,23*6F
$BDGSV,2,2,06,230,33,102,26,236,61,082,29*69
$GPGSA,A,3,24,12,19,17,10,25,23,,,,,,1.4,0.8,1.0*32
$GNGSA,A,3,75,76,,,,,,,,,,,1.4,0.8,1.0*23
$BDGSA,A,3,221,222,226,227,230,236,,,,,,,1.4,0.8,1.0*2B
$GPRMC,195639.000,A,5147.9492,N,01020.9921,E,0.0,345.6,160923,,,A*65
$GPGGA,195640.000,5147.9492,N,01020.9921,E,1,21,0.6,599.6,M,47.4,M,,*53
$GPVTG,345.6,T,,M,0.0,N,0.0,K,A*09
$GPGSV,3,1,10,10,17,287,30,12,55,232,33,13,09,157,23,15,28,187,25*7D
$GPGSV,3,2,10,17,30,050,27,19,44,079,23,23,09,252,25,24,85,155,40*7F
$GPGSV,3,3,10,25,14,241,25,32,13,320,27*7D
$GLGSV,1,1,04,65,44,240,23,66,36,316,35,75,72,331,32,76,23,268,34*6E
$GAGSV,1,1,02,119,48,291,23,127,85,082,25*60
$BDGSV,2,1,06,221,36,270,35,222,19,213,24,226,05,270,29,227,22,046,23*6F
$BDGSV,2,2,06,230,33,102,26,236,61,082,29*69
$GPGSA,A,3,24,12,19,17,15,10,25,32,23,,,,1.0,0.6,0.8*34
$GNGSA,A,3,65,66,75,76,,,,,,,,,1.0,0.6,0.8*23
$GAGSA,A,3,119,127,,,,,,,,,,,1.0,0.6,0.8*21
$BDGSA,A,3,221,222,226,227,230,236,,,,,,,1.0,0.6,0.8*28
$GPRMC,195640.000,A,5147.9492,N,01020.9921,E,0.0,345.6,160923,,,A*6B
$GPGGA,195641.000,5147.9492,N,01020.9921,E,1,21,0.6,599.6,M,47.4,M,,*52
$GPVTG,345.6,T,,M,0.0,N,0.0,K,A*09
$GPGSV,3,1,10,10,17,287,34,12,55,233,34,13,09,157,21,15,28,187,30*79
$GPGSV,3,2,10,17,30,050,27,19,44,079,24,23,09,251,28,24,85,154,40*77
$GPGSV,3,3,10,25,14,241,29,32,13,320,30*77
$GLGSV,1,1,04,65,44,240,26,66,36,316,35,75,72,331,32,76,23,268,34*6B
$GAGSV,1,1,04,104,01,327,21,119,48,291,26,127,84,082,30,130,29,063,19*63
$BDGSV,2,1,07,214,02,341,22,221,36,269,34,222,19,213,30,226,05,270,30*6D
$BDGSV,2,2,07,227,22,046,23,230,34,102,27,236,61,082,29*6A
$GPGSA,A,3,24,12,19,17,15,10,25,32,23,,,,1.0,0.6,0.8*34
$GNGSA,A,3,65,66,75,76,,,,,,,,,1.0,0.6,0.8*23
$GAGSA,A,3,119,127,,,,,,,,,,,1.0,0.6,0.8*21
$BDGSA,A,3,221,222,226,227,230,236,,,,,,,1.0,0.6,0.8*28
$GPRMC,195641.000,A,5147.9492,N,01020.9921,E,0.0,345.6,160923,,,A*6A
$GPGGA,195642.000,5147.9492,N,01020.9921,E,1,22,0.6,599.6,M,47.4,M,,*52
$GPVTG,345.6,T,,M,0.0,N,0.0,K,A*09
$GPGSV,3,1,11,10,17,287,34,12,55,233,35,13,09,157,20,15,28,187,31*79
$GPGSV,3,2,11,17,30,050,27,19,44,079,32,22,17,059,21,23,09,251,32*7C
$GPGSV,3,3,11,24,85,154,39,25,14,241,29,32,13,320,30*47
$GLGSV,1,1,04,65,44,240,27,66,36,316,35,75,72,331,32,76,23,268,33*6D
$GAGSV,1,1,04,104,01,327,19,119,48,291,28,127,84,082,31,130,29,063,22*6F
$BDGSV,2,1,07,214,02,341,22,221,36,269,34,222,19,213,31,226,05,270,36*6A
$BDGSV,2,2,07,227,22,046,23,230,34,102,27,236,61,082,30*62
$GPGSA,A,3,24,12,19,17,15,10,25,32,23,,,,1.0,0.6,0.8*34
$GNGSA,A,3,65,66,75,76,,,,,,,,,1.0,0.6,0.8*23
$GAGSA,A,3,119,127,130,,,,,,,,,,1.0,0.6,0.8*13
$BDGSA,A,3,221,222,226,227,230,236,,,,,,,1.0,0.6,0.8*28
$GPRMC,195642.000,A,5147.9492,N,01020.9921,E,0.0,345.6,160923,,,A*69
$GPGGA,195643.000,5147.9492,N,01020.9921,E,1,22,0.6,599.6,M,47.4,M,,*53
$GPVTG,345.6,T,,M,0.0,N,0.0,K,A*09
$GPGSV,3,1,11,10,17,287,34,12,55,233,35,13,09,157,18,15,28,187,31*72
$GPGSV,3,2,11,17,30,050,27,19,44,079,32,22,17,059,23,23,09,251,32*7E
$GPGSV,3,3,11,24,85,154,39,25,14,241,29,32,13,320,30*47
$GLGSV,1,1,04,65,44,240,28,66,36,316,35,75,72,331,32,76,23,268,33*62
$GAGSV,2,1,05,104,01,327,18,119,48,291,29,121,38,240,25,127,84,082,31*69
$GAGSV,2,2,05,130,29,063,23*60
$BDGSV,2,1,07,214,02,341,21,221,36,269,35,222,19,213,31,226,05,270,37*69
$BDGSV,2,2,07,227,22,046,25,230,34,102,27,236,61,082,30*64
$GPGSA,A,3,24,12,19,17,15,10,25,32,23,,,,1.0,0.6,0.8*34
$GNGSA,A,3,65,66,75,76,,,,,,,,,1.0,0.6,0.8*23
$GAGSA,A,3,119,127,130,,,,,,,,,,1.0,0.6,0.8*13
$BDGSA,A,3,221,222,226,227,230,236,,,,,,,1.0,0.6,0.8*28
$GPRMC,195643.000,A,5147.9492,N,01020.9921,E,0.0,345.6,160923,,,A*68
$GPGGA,195644.000,5147.9492,N,01020.9921,E,1,23,0.6,599.6,M,47.4,M,,*55
$GPVTG,345.6,T,,M,0.0,N,0.0,K,A*09
$GPGSV,3,1,11,10,17,287,34,12,55,233,35,13,09,157,17,15,28,187,31*7D
$GPGSV,3,2,11,17,30,050,27,19,44,079,32,22,17,059,23,23,09,251,32*7E
$GPGSV,3,3,11,24,85,154,39,25,14,241,28,32,13,320,30*46
$GLGSV,2,1,05,65,44,240,28,66,36,316,35,72,10,192,21,75,72,331,32*61
$GLGSV,2,2,05,76,23,268,33*5C
$GAGSV,2,1,05,104,01,327,16,119,48,291,29,121,38,240,30,127,84,082,31*63
$GAGSV,2,2,05,130,29,063,23*60
$BDGSV,2,1,07,214,02,341,19,221,36,269,35,222,19,213,31,226,05,270,37*62
$BDGSV,2,2,07,227,22,046,30,230,34,102,27,236,61,082,30*60
$GPGSA,A,3,24,12,19,17,15,10,25,32,23,,,,1.0,0.6,0.8*34
$GNGSA,A,3,65,66,75,76,,,,,,,,,1.0,0.6,0.8*23
$GAGSA,A,3,119,121,127,130,,,,,,,,,1.0,0.6,0.8*21
$BDGSA,A,3,221,222,226,227,230,236,,,,,,,1.0,0.6,0.8*28
$GPRMC,195644.000,A,5147.9492,N,01020.9921,E,0.0,345.6,160923,,,A*6F
$GPGGA,195645.000,5147.9492,N,01020.9921,E,1,24,0.4,599.6,M,47.4,M,,*51
$GPVTG,345.6,T,,M,0.0,N,0.0,K,A*09
$GPGSV,3,1,11,10,17,287,34,12,55,233,35,13,09,157,15,15,28,187,31*7F
$GPGSV,3,2,11,17,30,050,28,19,44,079,32,22,17,059,23,23,09,251,32*71
$GPGSV,3,3,11,24,85,154,38,25,14,241,28,32,13,320,30*47
$GLGSV,2,1,05,65,44,240,28,66,36,316,35,72,10,192,22,75,72,331,32*62
$GLGSV,2,2,05,76,23,268,33*5C
$GAGSV,2,1,05,104,01,327,15,119,48,291,29,121,38,240,30,127,84,082,32*63
$GAGSV,2,2,05,130,29,063,24*67
$BDGSV,2,1,08,210,26,055,23,214,02,341,18,221,36,269,36,222,19,213,31*6B
$BDGSV,2,2,08,226,05,270,37,227,22,046,30,230,34,102,28,236,61,082,30*62
$GPGSA,A,3,24,12,19,17,15,10,22,25,32,23,,,0.8,0.4,0.6*31
$GNGSA,A,3,65,66,72,75,76,,,,,,,,0.8,0.4,0.6*23
$GAGSA,A,3,119,121,127,,,,,,,,,,0.8,0.4,0.6*16
$BDGSA,A,3,221,222,226,227,230,236,,,,,,,0.8,0.4,0.6*2D
$GPRMC,195645.000,A,5147.9492,N,01020.9921,E,0.0,345.6,160923,,,A*6E
$GPGGA,195646.000,5147.9492,N,01020.9921,E,1,24,0.4,599.6,M,47.4,M,,*52
$GPVTG,345.6,T,,M,0.0,N,0.0,K,A*09
$GPGSV,3,1,11,10,17,287,34,12,55,233,35,13,09,157,14,15,28,187,31*7E
$GPGSV,3,2,11,17,30,050,28,19,44,079,32,22,17,059,23,23,09,251,32*71
$GPGSV,3,3,11,24,85,154,38,25,14,241,28,32,13,320,30*47
$GLGSV,2,1,05,65,44,240,28,66,36,316,34,72,10,192,23,75,72,331,32*62
$GLGSV,2,2,05,76,23,268,33*5C
$GAGSV,2,1,05,104,01,327,14,119,48,291,29,121,38,240,30,127,84,082,32*62
$GAGSV,2,2,05,130,29,063,24*67
$BDGSV,2,1,08,210,26,055,25,214,02,341,16,221,36,269,36,222,19,213,31*63
$BDGSV,2,2,08,226,05,270,37,227,22,046,30,230,34,102,28,236,61,082,30*62
$GPGSA,A,3,24,12,19,17,15,10,22,25,32,23,,,0.8,0.4,0.6*31
$GNGSA,A,3,65,66,72,75,76,,,,,,,,0.8,0.4,0.6*23
$GAGSA,A,3,119,121,127,,,,,,,,,,0.8,0.4,0.6*16
$BDGSA,A,3,221,222,226,227,230,236,,,,,,,0.8,0.4,0.6*2D
$GPRMC,195646.000,A,5147.9492,N,01020.9921,E,0.0,345.6,160923,,,A*6D
$GPGGA,195647.000,5147.9492,N,01020.9921,E,1,24,0.4,599.6,M,47.4,M,,*53
$GPVTG,345.6,T,,M,0.0,N,0.0,K,A*09
$GPGSV,3,1,11,10,17,287,34,12,55,233,35,13,09,157,13,15,28,187,31*79
$GPGSV,3,2,11,17,30,050,28,19,44,079,32,22,17,059,24,23,09,251,32*76
$GPGSV,3,3,11,24,85,154,38,25,14,241,28,32,13,320,30*47
$GLGSV,2,1,05,65,44,240,28,66,36,316,33,72,10,192,23,75,72,331,32*65
$GLGSV,2,2,05,76,23,268,32*5D
$GAGSV,2,1,05,104,01,327,13,119,48,291,29,121,38,240,30,127,84,082,32*65
$GAGSV,2,2,05,130,29,063,25*66
$BDGSV,2,1,08,210,26,055,25,214,02,341,15,221,36,269,36,222,19,213,30*61
$BDGSV,2,2,08,226,05,270,36,227,22,046,30,230,34,102,28,236,61,082,30*63
$GPGSA,A,3,24,12,19,17,15,10,22,25,32,23,,,0.8,0.4,0.6*31
$GNGSA,A,3,65,66,72,75,76,,,,,,,,0.8,0.4,0.6*23
$GAGSA,A,3,119,121,127,,,,,,,,,,0.8,0.4,0.6*16
$BDGSA,A,3,221,222,226,227,230,236,,,,,,,0.8,0.4,0.6*2D
$GPRMC,195647.000,A,5147.9492,N,01020.9921,E,0.0,345.6,160923,,,A*6C
$GPGGA,195648.000,5147.9492,N,01020.9921,E,1,24,0.4,599.6,M,47.4,M,,*5C
$GPVTG,345.6,T,,M,0.0,N,0.0,K,A*09
$GPGSV,3,1,11,10,17,287,33,12,55,233,35,13,09,157,13,15,28,187,30*7F
$GPGSV,3,2,11,17,30,050,28,19,44,079,32,22,17,059,24,23,09,251,32*76
$GPGSV,3,3,11,24,85,154,37,25,14,241,28,32,13,320,30*48
$GLGSV,2,1,05,65,44,240,28,66,36,316,33,72,10,192,23,75,72,331,32*65
$GLGSV,2,2,05,76,23,268,32*5D
$GAGSV,2,1,05,104,01,327,12,119,48,291,29,121,38,240,30,127,84,082,32*64
$GAGSV,2,2,05,130,29,063,25*66
$BDGSV,2,1,08,210,26,055,25,214,02,341,14,221,36,269,35,222,19,213,30*63
$BDGSV,2,2,08,226,05,270,36,227,22,046,30,230,34,102,28,236,61,082,30*63
$GPGSA,A,3,24,12,19,17,15,10,22,25,32,23,,,0.8,0.4,0.6*31
$GNGSA,A,3,65,66,72,75,76,,,,,,,,0.8,0.4,0.6*23
$GAGSA,A,3,119,121,127,,,,,,,,,,0.8,0.4,0.6*16
$BDGSA,A,3,221,222,226,227,230,236,,,,,,,0.8,0.4,0.6*2D
$GPRMC,195648.000,A,5147.9492,N,01020.9921,E,0.0,345.6,160923,,,A*63
$GPGGA,195649.000,5147.9492,N,01020.9921,E,1,24,0.4,599.6,M,47.4,M,,*5D
$GPVTG,345.6,T,,M,0.0,N,0.0,K,A*09
$GPGSV,3,1,11,10,17,287,33,12,55,233,35,13,09,157,12,15,28,187,30*7E
$GPGSV,3,2,11,17,30,050,28,19,44,079,32,22,17,059,24,23,09,251,31*75
$GPGSV,3,3,11,24,85,154,37,25,14,241,28,32,13,320,30*48
$GLGSV,2,1,05,65,44,240,28,66,36,316,33,72,10,192,23,75,72,331,32*65
$GLGSV,2,2,05,76,23,268,32*5D
$GAGSV,1,1,04,119,48,291,29,121,38,240,30,127,84,082,32,130,29,063,25*6C
$BDGSV,2,1,08,210,26,055,25,214,02,341,13,221,36,269,35,222,19,213,30*64
$BDGSV,2,2,08,226,05,270,35,227,22,046,30,230,34,102,28,236,61,082,31*61
$GPGSA,A,3,24,12,19,17,15,10,22,25,32,23,,,0.8,0.4,0.6*31
$GNGSA,A,3,65,66,72,75,76,,,,,,,,0.8,0.4,0.6*23
$GAGSA,A,3,119,121,127,,,,,,,,,,0.8,0.4,0.6*16
$BDGSA,A,3,221,222,226,227,230,236,,,,,,,0.8,0.4,0.6*2D
$GPRMC,195649.000,A,5147.9492,N,01020.9921,E,0.0,345.6,160923,,,A*62
$GPGGA,195650.000,5147.9492,N,01020.9921,E,1,24,0.4,599.6,M,47.4,M,,*55
$GPVTG,345.6,T,,M,0.0,N,0.0,K,A*09
$GPGSV,3,1,10,10,17,287,33,12,55,233,35,15,28,187,30,17,30,050,28*7E
$GPGSV,3,2,10,19,44,079,32,22,17,059,24,23,09,251,31,24,85,154,37*71
$GPGSV,3,3,10,25,14,241,28,32,13,320,30*76
$GLGSV,2,1,05,65,44,240,28,66,36,316,32,72,10,192,23,75,72,331,32*64
$GLGSV,2,2,05,76,23,268,32*5D
$GAGSV,1,1,04,119,48,291,29,121,38,240,30,127,84,082,32,130,29,063,25*6C
$BDGSV,2,1,08,210,26,055,24,214,02,341,13,221,36,269,35,222,19,213,30*65
$BDGSV,2,2,08,226,05,270,35,227,22,046,30,230,34,102,28,236,61,082,31*61
$GPGSA,A,3,24,12,19,17,15,10,22,25,32,23,,,0.8,0.4,0.6*31
$GNGSA,A,3,65,66,72,75,76,,,,,,,,0.8,0.4,0.6*23
$GAGSA,A,3,119,121,127,,,,,,,,,,0.8,0.4,0.6*16
$BDGSA,A,3,221,222,226,227,230,236,,,,,,,0.8,0.4,0.6*2D
$GPRMC,195650.000,A,5147.9492,N,01020.9921,E,0.0,345.6,160923,,,A*6A
$GPGGA,195651.000,5147.9492,N,01020.9921,E,1,24,0.4,599.6,M,47.4,M,,*54
$GPVTG,345.6,T,,M,0.0,N,0.0,K,A*09
$GPGSV,3,1,10,10,17,287,33,12,55,233,35,15,28,187,30,17,30,050,28*7E
$GPGSV,3,2,10,19,44,079,32,22,17,059,24,23,09,251,31,24,85,154,37*71
$GPGSV,3,3,10,25,14,241,28,32,13,320,30*76
$GLGSV,2,1,05,65,44,240,28,66,36,316,32,72,10,192,22,75,72,331,32*65
$GLGSV,2,2,05,76,23,268,32*5D
$GAGSV,1,1,04,119,48,291,29,121,38,240,30,127,84,082,32,130,29,063,25*6C
$BDGSV,2,1,08,210,26,055,24,214,02,341,12,221,36,269,35,222,19,213,30*64
$BDGSV,2,2,08,226,05,270,34,227,22,046,30,230,34,102,28,236,61,082,31*60
$GPGSA,A,3,24,12,19,17,15,10,22,25,32,23,,,0.8,0.4,0.6*31
$GNGSA,A,3,65,66,72,75,76,,,,,,,,0.8,0.4,0.6*23
$GAGSA,A,3,119,121,127,,,,,,,,,,0.8,0.4,0.6*16
$BDGSA,A,3,221,222,226,227,230,236,,,,,,,0.8,0.4,0.6*2D
$GPRMC,195651.000,A,5147.9492,N,01020.9921,E,0.0,345.6,160923,,,A*6B
$GPGGA,195652.000,5147.9492,N,01020.9921,E,1,24,0.4,599.6,M,47.4,M,,*57
$GPVTG,345.6,T,,M,0.0,N,0.0,K,A*09
$GPGSV,3,1,10,10,17,287,33,12,55,233,35,15,28,187,30,17,30,050,28*7E
$GPGSV,3,2,10,19,44,079,32,22,17,059,24,23,09,251,31,24,85,154,37*71
$GPGSV,3,3,10,25,14,241,28,32,13,320,30*76
$GLGSV,2,1,05,65,44,240,28,66,36,316,32,72,10,192,22,75,72,331,32*65
$GLGSV,2,2,05,76,23,268,31*5E
$GAGSV,1,1,04,119,48,291,29,121,38,240,30,127,84,082,32,130,29,063,25*6C
$BDGSV,2,1,07,210,26,055,24,221,36,269,35,222,19,213,30,226,05,270,34*6A
$BDGSV,2,2,07,227,22,046,30,230,34,102,28,236,61,082,31*6E
$GPGSA,A,3,24,12,19,17,15,10,22,25,32,23,,,0.8,0.4,0.6*31
$GNGSA,A,3,65,66,72,75,76,,,,,,,,0.8,0.4,0.6*23
$GAGSA,A,3,119,121,127,,,,,,,,,,0.8,0.4,0.6*16
$BDGSA,A,3,221,222,226,227,230,236,,,,,,,0.8,0.4,0.6*2D
$GPRMC,195652.000,A,5147.9492,N,01020.9921,E,0.0,345.6,160923,,,A*68
$GPGGA,195653.000,5147.9492,N,01020.9921,E,1,23,0.4,599.6,M,47.4,M,,*51
$GPVTG,345.6,T,,M,0.0,N,0.0,K,A*09
$GPGSV,3,1,10,10,17,287,33,12,55,233,35,15,28,187,30,17,30,050,28*7E
$GPGSV,3,2,10,19,44,079,32,22,17,059,24,23,09,251,31,24,85,154,36*70
$GPGSV,3,3,10,25,14,241,28,32,13,320,30*76
$GLGSV,2,1,05,65,44,240,28,66,36,316,32,72,10,192,22,75,72,331,32*65
$GLGSV,2,2,05,76,23,268,31*5E
$GAGSV,1,1,04,119,48,291,27,121,38,240,30,127,84,082,32,130,29,063,25*62
$BDGSV,2,1,08,207,13,049,19,210,26,055,24,221,36,269,35,222,19,213,30*66
$BDGSV,2,2,08,226,05,270,36,227,22,046,29,230,34,102,28,236,61,082,31*6A
$GPGSA,A,3,24,12,19,17,15,10,22,25,32,23,,,1.0,0.4,0.8*36
$GNGSA,A,3,65,66,72,75,76,,,,,,,,1.0,0.4,0.8*24
$GAGSA,A,3,121,127,,,,,,,,,,,1.0,0.4,0.8*28
$BDGSA,A,3,221,222,226,227,230,236,,,,,,,1.0,0.4,0.8*2A
$GPRMC,195653.000,A,5147.9492,N,01020.9921,E,0.0,345.6,160923,,,A*69
$GPGGA,195654.000,5147.9492,N,01020.9921,E,1,24,0.4,599.6,M,47.4,M,,*51
$GPVTG,345.6,T,,M,0.0,N,0.0,K,A*09
$GPGSV,3,1,11,06,02,105,25,10,17,287,33,12,55,233,35,15,28,187,31*73
$GPGSV,3,2,11,17,30,050,28,19,44,079,32,22,17,059,24,23,09,251,31*75
$GPGSV,3,3,11,24,85,154,36,25,14,241,28,32,13,320,30*49
$GLGSV,2,1,05,65,44,240,28,66,36,316,32,72,10,192,22,75,72,331,32*65
$GLGSV,2,2,05,76,23,268,31*5E
$GAGSV,1,1,04,119,48,291,26,121,38,240,30,127,84,082,32,130,29,063,25*63
$BDGSV,2,1,08,207,13,049,18,210,26,055,24,221,36,269,35,222,19,213,30*67
$BDGSV,2,2,08,226,05,270,38,227,22,046,29,230,34,102,28,236,61,082,32*67
$GPGSA,A,3,24,12,19,17,15,10,22,25,32,23,,,0.8,0.4,0.8*3F
$GNGSA,A,3,65,66,72,75,76,,,,,,,,0.8,0.4,0.8*2D
$GAGSA,A,3,121,127,130,,,,,,,,,,0.8,0.4,0.8*13
$BDGSA,A,3,221,222,226,227,230,236,,,,,,,0.8,0.4,0.8*23
$GPRMC,195654.000,A,5147.9492,N,01020.9921,E,0.0,345.6,160923,,,A*6E
$GPGGA,195655.000,5147.9492,N,01020.9921,E,1,24,0.4,599.6,M,47.4,M,,*50
$GPVTG,345.6,T,,M,0.0,N,0.0,K,A*09
$GPGSV,3,1,11,06,02,105,24,10,17,287,33,12,55,233,34,15,28,187,31*73
$GPGSV,3,2,11,17,30,050,28,19,44,079,32,22,17,059,25,23,09,251,35*70
$GPGSV,3,3,11,24,85,154,36,25,14,241,28,32,13,320,30*49
$GLGSV,2,1,05,65,44,240,28,66,36,316,32,72,10,192,22,75,72,331,32*65
$GLGSV,2,2,05,76,23,268,31*5E
$GAGSV,1,1,04,119,48,291,31,121,38,240,30,127,84,082,32,130,29,063,25*65
$BDGSV,2,1,08,207,13,049,16,210,26,055,23,221,36,269,35,222,19,213,30*6E
$BDGSV,2,2,08,226,05,270,38,227,22,046,29,230,34,102,28,236,61,082,32*67
$GPGSA,A,3,24,12,19,17,15,10,22,25,32,23,,,0.8,0.4,0.8*3F
$GNGSA,A,3,65,66,72,75,76,,,,,,,,0.8,0.4,0.8*2D
$GAGSA,A,3,121,127,130,,,,,,,,,,0.8,0.4,0.8*13
$BDGSA,A,3,221,222,226,227,230,236,,,,,,,0.8,0.4,0.8*23
$GPRMC,195655.000,A,5147.9492,N,01020.9921,E,0.0,345.6,160923,,,A*6F
$GPGGA,195656.000,5147.9486,N,01020.9921,E,1,24,0.4,598.5,M,47.4,M,,*54
$GPVTG,333.9,T,,M,0.6,N,1.1,K,A*01
$GPGSV,3,1,11,06,02,105,22,10,17,287,33,12,55,233,34,15,28,187,31*75
$GPGSV,3,2,11,17,30,050,28,19,44,079,32,22,17,059,25,23,09,251,38*7D
$GPGSV,3,3,11,24,85,154,36,25,14,241,30,32,13,320,30*40
$GLGSV,2,1,06,65,44,240,28,66,36,316,32,72,10,192,22,73,15,072,25*63
$GLGSV,2,2,06,75,72,331,32,76,23,268,31*6A
$GAGSV,1,1,04,119,48,291,31,121,38,240,31,127,84,082,32,130,29,063,25*64
$BDGSV,2,1,08,207,13,049,15,210,26,055,21,221,36,269,35,222,19,213,30*6F
$BDGSV,2,2,08,226,05,270,38,227,22,046,29,230,34,102,29,236,61,082,32*66
$GPGSA,A,3,24,12,19,17,15,10,22,25,32,23,,,0.8,0.4,0.6*31
$GNGSA,A,3,65,66,72,75,76,,,,,,,,0.8,0.4,0.6*23
$GAGSA,A,3,119,121,127,,,,,,,,,,0.8,0.4,0.6*16
$BDGSA,A,3,221,222,226,227,230,236,,,,,,,0.8,0.4,0.6*2D
$GPRMC,195656.000,A,5147.9486,N,01020.9921,E,0.6,333.9,160923,,,A*61
$GPGGA,195657.000,5147.9483,N,01020.9922,E,1,24,0.4,597.4,M,47.4,M,,*5D
$GPVTG,357.3,T,,M,0.7,N,1.2,K,A*0B
$GPGSV,3,1,11,06,02,105,21,10,17,287,33,12,55,233,34,15,28,187,31*76
$GPGSV,3,2,11,17,30,050,28,19,44,079,32,22,17,059,25,23,09,251,38*7D
$GPGSV,3,3,11,24,85,154,38,25,14,241,36,32,13,320,31*49
$GLGSV,2,1,06,65,44,240,28,66,36,316,31,72,10,192,22,73,15,072,25*60
$GLGSV,2,2,06,75,72,331,32,76,23,268,35*6E
$GAGSV,1,1,04,119,48,291,31,121,38,240,31,127,84,082,32,130,29,063,25*64
$BDGSV,2,1,08,207,13,049,14,210,26,055,20,221,36,269,35,222,19,213,31*6E
$BDGSV,2,2,08,226,05,270,37,227,22,046,29,230,34,102,29,236,61,082,32*69
$GPGSA,A,3,24,12,19,17,15,10,22,25,32,23,,,0.8,0.4,0.6*31
$GNGSA,A,3,65,66,72,75,76,,,,,,,,0.8,0.4,0.6*23
$GAGSA,A,3,119,121,127,,,,,,,,,,0.8,0.4,0.6*16
$BDGSA,A,3,221,222,226,227,230,236,,,,,,,0.8,0.4,0.6*2D
$GPRMC,195657.000,A,5147.9483,N,01020.9922,E,0.7,357.3,160923,,,A*6F
$GPGGA,195658.000,5147.9483,N,01020.9924,E,1,24,0.4,597.1,M,47.4,M,,*51
$GPVTG,357.7,T,,M,0.4,N,0.7,K,A*08
$GPGSV,3,1,11,06,02,105,19,10,17,287,33,12,55,233,34,15,28,187,31*7D
$GPGSV,3,2,11,17,30,050,28,19,44,079,32,22,17,059,25,23,09,251,38*7D
$GPGSV,3,3,11,24,85,154,39,25,14,241,36,32,13,320,31*48
$GLGSV,2,1,07,65,44,240,28,66,36,316,31,72,10,192,23,73,15,072,23*66
$GLGSV,2,2,07,75,72,331,33,76,23,268,35,85,10,133,18*5A
$GAGSV,1,1,04,119,48,291,31,121,38,240,32,127,84,082,32,130,29,063,25*67
$BDGSV,2,1,08,207,13,049,13,210,26,055,18,221,36,269,35,222,19,213,31*62
$BDGSV,2,2,08,226,05,270,37,227,22,046,29,230,34,102,29,236,61,082,32*69
$GPGSA,A,3,24,12,19,17,15,10,22,25,32,23,,,0.8,0.4,0.6*31
$GNGSA,A,3,65,66,72,75,76,,,,,,,,0.8,0.4,0.6*23
$GAGSA,A,3,119,121,127,,,,,,,,,,0.8,0.4,0.6*16
$BDGSA,A,3,221,222,226,227,230,236,,,,,,,0.8,0.4,0.6*2D
$GPRMC,195658.000,A,5147.9483,N,01020.9924,E,0.4,357.7,160923,,,A*61
$GPGGA,195659.000,5147.9485,N,01020.9922,E,1,24,0.4,597.1,M,47.4,M,,*50
$GPVTG,357.9,T,,M,0.0,N,0.0,K,A*05
$GPGSV,3,1,11,06,02,105,18,10,17,287,33,12,55,233,34,15,28,187,31*7C
$GPGSV,3,2,11,17,30,050,28,19,44,079,32,22,17,059,25,23,09,251,37*72
$GPGSV,3,3,11,24,85,154,39,25,14,241,36,32,13,320,31*48
$GLGSV,2,1,07,65,44,240,28,66,36,316,31,72,10,192,23,73,15,072,22*67
$GLGSV,2,2,07,75,72,331,33,76,23,268,35,85,10,133,19*5B
$GAGSV,1,1,04,119,48,291,31,121,38,240,32,127,84,082,32,130,29,063,25*67
$BDGSV,2,1,08,207,13,049,13,210,26,055,17,221,36,269,35,222,19,213,31*6D
$BDGSV,2,2,08,226,05,270,37,227,22,046,29,230,34,102,29,236,61,082,32*69
$GPGSA,A,3,24,12,19,17,15,10,22,25,32,23,,,0.8,0.4,0.6*31
$GNGSA,A,3,65,66,72,75,76,,,,,,,,0.8,0.4,0.6*23
$GAGSA,A,3,119,121,127,,,,,,,,,,0.8,0.4,0.6*16
$BDGSA,A,3,221,222,226,227,230,236,,,,,,,0.8,0.4,0.6*2D
$GPRMC,195659.000,A,5147.9485,N,01020.9922,E,0.0,357.9,160923,,,A*6A
$GPGGA,195700.000,5147.9485,N,01020.9922,E,1,23,0.6,597.1,M,47.4,M,,*58
$GPVTG,357.8,T,,M,0.0,N,0.0,K,A*04
$GPGSV,3,1,11,06,02,105,16,10,17,287,33,12,55,233,34,15,28,187,31*72
$GPGSV,3,2,11,17,30,050,28,19,44,079,32,22,17,059,25,23,09,251,37*72
$GPGSV,3,3,11,24,85,154,39,25,14,241,36,32,13,320,31*48
$GLGSV,2,1,07,65,44,240,28,66,36,316,31,72,10,192,23,73,15,072,20*65
$GLGSV,2,2,07,75,72,331,33,76,23,268,35,85,10,133,20*51
$GAGSV,1,1,04,119,48,291,31,121,38,240,32,127,84,082,32,130,29,063,25*67
$BDGSV,2,1,07,210,26,055,15,221,36,269,35,222,19,213,31,226,05,270,37*6A
$BDGSV,2,2,07,227,22,046,29,230,34,102,29,236,61,082,32*64
$GPGSA,A,3,24,12,19,17,15,10,22,25,32,23,,,1.0,0.6,0.8*34
$GNGSA,A,3,65,66,75,76,,,,,,,,,1.0,0.6,0.8*23
$GAGSA,A,3,119,121,127,,,,,,,,,,1.0,0.6,0.8*13
$BDGSA,A,3,221,222,226,227,230,236,,,,,,,1.0,0.6,0.8*28
$GPRMC,195700.000,A,5147.9485,N,01020.9922,E,0.0,357.8,160923,,,A*66
$GPGGA,195701.000,5147.9485,N,01020.9922,E,1,23,0.4,597.1,M,47.4,M,,*5B
$GPVTG,357.7,T,,M,0.0,N,0.0,K,A*0B
$GPGSV,3,1,11,06,02,105,15,10,17,287,33,12,55,233,34,15,28,187,31*71
$GPGSV,3,2,11,17,30,050,28,19,44,079,32,22,17,059,25,23,09,251,36*73
$GPGSV,3,3,11,24,85,154,38,25,14,241,35,32,13,320,31*4A
$GLGSV,2,1,07,65,44,240,28,66,36,316,31,72,10,192,23,73,15,072,19*6F
$GLGSV,2,2,07,75,72,331,33,76,23,268,35,85,10,133,21*50
$GAGSV,1,1,04,119,48,291,30,121,38,240,32,127,84,082,32,130,29,063,25*66
$BDGSV,2,1,07,210,26,055,14,221,36,269,35,222,19,213,31,226,05,270,37*6B
$BDGSV,2,2,07,227,22,046,29,230,34,102,30,236,61,082,32*6C
$GPGSA,A,3,24,12,19,17,15,10,22,32,23,,,,0.8,0.4,0.6*36
$GNGSA,A,3,65,66,75,76,85,,,,,,,,0.8,0.4,0.6*2B
$GAGSA,A,3,119,121,127,,,,,,,,,,0.8,0.4,0.6*16
$BDGSA,A,3,221,222,226,227,230,236,,,,,,,0.8,0.4,0.6*2D
$GPRMC,195701.000,A,5147.9485,N,01020.9922,E,0.0,357.7,160923,,,A*68
$GPGGA,195702.000,5147.9485,N,01020.9922,E,1,23,0.4,597.1,M,47.4,M,,*58
$GPVTG,357.7,T,,M,0.0,N,0.0,K,A*0B
$GPGSV,3,1,11,06,02,105,14,10,17,287,33,12,55,233,34,15,28,187,31*70
$GPGSV,3,2,11,17,30,050,28,19,44,079,32,22,17,059,25,23,09,251,36*73
$GPGSV,3,3,11,24,85,154,38,25,14,241,34,32,13,320,31*4B
$GLGSV,2,1,07,65,44,240,28,66,36,316,31,72,10,192,23,73,15,072,17*61
$GLGSV,2,2,07,75,72,331,32,76,23,268,34,85,10,133,21*50
$GAGSV,1,1,04,119,48,291,30,121,38,240,31,127,84,082,32,130,29,063,25*65
$BDGSV,2,1,07,210,26,055,13,221,36,269,36,222,19,213,31,226,05,270,37*6F
$BDGSV,2,2,07,227,22,046,28,230,34,102,30,236,61,082,32*6D
$GPGSA,A,3,24,12,19,17,15,10,22,32,23,,,,0.8,0.4,0.8*38
$GNGSA,A,3,65,66,72,75,76,,,,,,,,0.8,0.4,0.8*2D
$GAGSA,A,3,119,121,127,,,,,,,,,,0.8,0.4,0.8*18
$BDGSA,A,3,221,222,226,227,230,236,,,,,,,0.8,0.4,0.8*23
$GPRMC,195702.000,A,5147.9485,N,01020.9922,E,0.0,357.7,160923,,,A*6B
$GPGGA,195703.000,5147.9485,N,01020.9922,E,1,23,0.4,597.1,M,47.4,M,,*59
$GPVTG,357.6,T,,M,0.0,N,0.0,K,A*0A
$GPGSV,3,1,11,06,02,105,13,10,17,287,33,12,55,233,34,15,28,187,31*77
$GPGSV,3,2,11,17,30,050,28,19,44,079,32,22,17,059,25,23,09,251,35*70
$GPGSV,3,3,11,24,85,154,38,25,14,241,34,32,13,320,31*4B
$GLGSV,2,1,07,65,44,240,28,66,36,316,31,72,10,192,23,73,15,072,16*60
$GLGSV,2,2,07,75,72,331,32,76,23,268,34,85,10,133,21*50
$GAGSV,1,1,04,119,48,291,30,121,38,240,31,127,84,082,32,130,29,063,25*65
$BDGSV,2,1,07,210,26,055,12,221,36,269,36,222,19,213,31,226,05,270,37*6E
$BDGSV,2,2,07,227,22,046,28,230,34,102,30,236,61,082,32*6D
$GPGSA,A,3,24,12,19,17,15,10,22,32,23,,,,0.8,0.4,0.6*36
$GNGSA,A,3,65,66,75,76,85,,,,,,,,0.8,0.4,0.6*2B
$GAGSA,A,3,119,121,127,,,,,,,,,,0.8,0.4,0.6*16
$BDGSA,A,3,221,222,226,227,230,236,,,,,,,0.8,0.4,0.6*2D
$GPRMC,195703.000,A,5147.9485,N,01020.9922,E,0.0,357.6,160923,,,A*6B
$GPGGA,195704.000,5147.9485,N,01020.9922,E,1,24,0.4,597.1,M,47.4,M,,*59
$GPVTG,357.6,T,,M,0.0,N,0.0,K,A*0A
$GPGSV,3,1,11,06,02,105,13,10,17,287,33,12,55,233,34,15,28,187,31*77
$GPGSV,3,2,11,17,30,050,28,19,44,079,32,22,17,059,25,23,09,251,35*70
$GPGSV,3,3,11,24,85,154,38,25,14,241,33,32,13,320,31*4C
$GLGSV,2,1,07,65,44,240,28,66,36,316,31,72,10,192,23,73,15,072,14*62
$GLGSV,2,2,07,75,72,331,32,76,23,268,34,85,10,133,21*50
$GAGSV,1,1,04,119,48,291,30,121,38,240,31,127,84,082,32,130,29,063,25*65
$BDGSV,2,1,06,221,36,269,35,222,19,213,31,226,05,270,36,227,22,046,28*66
$BDGSV,2,2,06,230,34,102,30,236,61,082,32*63
$GPGSA,A,3,24,12,19,17,15,10,22,32,23,,,,0.8,0.4,0.6*36
$GNGSA,A,3,65,66,72,75,76,85,,,,,,,0.8,0.4,0.6*2E
$GAGSA,A,3,119,121,127,,,,,,,,,,0.8,0.4,0.6*16
$BDGSA,A,3,221,222,226,227,230,236,,,,,,,0.8,0.4,0.6*2D
$GPRMC,195704.000,A,5147.9485,N,01020.9922,E,0.0,357.6,160923,,,A*6C
