$GPGGA,094024.000,,,,,0,,,,,,,,*73
$GPVTG,0.0,T,,M,0.0,N,0.0,K,N*02
$GPGSV,3,1,09,04,09,084,28,05,28,307,30,06,16,207,38,07,72,125,32*7B
$GPGSV,3,2,09,09,42,084,35,11,34,239,41,13,11,262,31,20,60,281,37*73
$GPGSV,3,3,09,30,52,195,41*4C
$GLGSV,1,1,03,73,44,148,41,74,08,178,35,80,48,058,41*55
$BDGSV,1,1,04,223,07,193,38,224,46,072,40,225,45,161,43,233,43,116,40*6D
$GPRMC,094024.000,V,,,,,,,201123,,,N*45
$GPGGA,094025.000,,,,,0,,,,,,,,*72
$GPVTG,0.0,T,,M,0.0,N,0.0,K,N*02
$GPGSV,3,1,10,04,09,084,28,05,28,307,30,06,16,207,37,07,72,125,32*7C
$GPGSV,3,2,10,09,42,084,35,11,34,239,41,13,11,262,31,16,12,031,33*76
$GPGSV,3,3,10,20,60,281,37,30,52,195,41*7F
$GLGSV,1,1,03,73,44,148,41,74,08,178,35,80,48,058,41*55
$BDGSV,1,1,04,223,07,193,39,224,46,072,40,225,45,161,43,233,43,116,42*6E
$GPRMC,094025.000,V,,,,,,,201123,,,N*44
$GPGGA,094025.340,5151.5127,N,01022.1979,E,1,16,0.6,602.1,M,47.4,M,,*54
$GPVTG,79.8,T,,M,30.3,N,56.1,K,A*39
$GPGSV,3,1,10,04,09,084,28,05,28,307,32,06,16,207,37,07,72,125,32*7E
$GPGSV,3,2,10,09,42,084,35,11,34,239,41,13,11,262,31,16,12,031,33*76
$GPGSV,3,3,10,20,60,281,37,30,52,195,41*7F
$GLGSV,1,1,03,73,44,148,41,74,08,178,35,80,48,058,40*54
$GAGSV,1,1,02,104,85,336,37,111,32,233,33*62
$BDGSV,1,1,04,223,07,193,39,224,46,072,40,225,45,161,43,233,43,116,42*6E
$GPGSA,A,3,07,20,30,09,11,05,06,16,13,04,,,1.0,0.6,0.8*30
$GNGSA,A,3,73,74,80,,,,,,,,,,1.0,0.6,0.8*2C
$BDGSA,A,3,223,224,225,,,,,,,,,,1.0,0.6,0.8*1E
$GPRMC,094025.340,A,5151.5127,N,01022.1979,E,30.3,79.8,201123,,,A*60
$GPGGA,094025.440,5151.5119,N,01022.1997,E,1,17,0.6,600.7,M,47.4,M,,*5B
$GPVTG,79.2,T,,M,30.2,N,55.9,K,A*39
$GPGSV,3,1,10,04,09,084,28,05,28,307,33,06,16,207,37,07,72,125,32*7F
$GPGSV,3,2,10,09,42,084,35,11,34,239,41,13,11,262,31,16,12,031,32*77
$GPGSV,3,3,10,20,60,281,36,30,52,195,41*7E
$GLGSV,1,1,03,73,44,148,40,74,08,178,34,80,48,058,40*54
$GAGSV,1,1,02,104,85,336,37,111,32,233,33*62
$BDGSV,1,1,04,223,07,193,38,224,46,072,40,225,45,161,43,233,43,116,42*6F
$GPGSA,A,3,07,20,30,09,11,05,06,16,13,04,,,1.0,0.6,0.8*30
$GNGSA,A,3,73,74,80,,,,,,,,,,1.0,0.6,0.8*2C
$GAGSA,A,3,104,,,,,,,,,,,,1.0,0.6,0.8*19
$BDGSA,A,3,223,224,225,,,,,,,,,,1.0,0.6,0.8*1E
$GPRMC,094025.440,A,5151.5119,N,01022.1997,E,30.2,79.2,201123,,,A*61
$GPGGA,094026.000,5151.5130,N,01022.2064,E,1,18,0.6,599.9,M,47.4,M,,*57
$GPVTG,77.5,T,,M,30.3,N,56.1,K,A*3A
$GPGSV,3,1,10,04,09,084,28,05,28,307,38,06,16,207,37,07,72,125,32*74
$GPGSV,3,2,10,09,42,084,35,11,34,239,41,13,11,262,31,16,12,031,32*77
$GPGSV,3,3,10,20,60,281,36,30,52,195,41*7E
$GLGSV,1,1,03,73,44,148,40,74,08,178,34,80,48,058,40*54
$GAGSV,1,1,02,104,85,336,37,111,32,233,33*62
$BDGSV,1,1,04,223,07,193,38,224,46,072,40,225,45,161,42,233,43,116,42*6E
$GPGSA,A,3,07,20,30,09,11,05,06,16,13,04,,,1.0,0.6,0.8*30
$GNGSA,A,3,73,74,80,,,,,,,,,,1.0,0.6,0.8*2C
$GAGSA,A,3,104,111,,,,,,,,,,,1.0,0.6,0.8*28
$BDGSA,A,3,223,224,225,,,,,,,,,,1.0,0.6,0.8*1E
$GPRMC,094026.000,A,5151.5130,N,01022.2064,E,30.3,77.5,201123,,,A*67
$GPGGA,094027.000,5151.5153,N,01022.2197,E,1,19,0.6,599.4,M,47.4,M,,*52
$GPVTG,71.2,T,,M,29.6,N,54.9,K,A*3C
$GPGSV,3,1,10,04,09,084,27,05,28,307,38,06,16,207,37,07,72,125,32*7B
$GPGSV,3,2,10,09,42,084,35,11,34,239,41,13,11,262,31,16,12,031,32*77
$GPGSV,3,3,10,20,60,281,35,30,52,195,40*7C
$GLGSV,1,1,03,73,44,148,39,74,08,178,34,80,48,058,40*5A
$GAGSV,1,1,04,104,85,336,36,111,32,233,33,119,29,084,24,121,31,068,26*67
$BDGSV,1,1,04,223,07,193,38,224,46,072,40,225,45,161,41,233,43,116,42*6D
$GPGSA,A,3,07,20,30,09,11,05,06,16,13,04,,,1.0,0.6,0.8*30
$GNGSA,A,3,73,74,80,,,,,,,,,,1.0,0.6,0.8*2C
$GAGSA,A,3,104,111,121,,,,,,,,,,1.0,0.6,0.8*1A
$BDGSA,A,3,223,224,225,,,,,,,,,,1.0,0.6,0.8*1E
$GPRMC,094027.000,A,5151.5153,N,01022.2197,E,29.6,71.2,201123,,,A*62
$GPGGA,094028.000,5151.5187,N,01022.2319,E,1,20,0.6,601.1,M,47.4,M,,*5D
$GPVTG,58.1,T,,M,30.1,N,55.7,K,A*34
$GPGSV,3,1,10,04,09,084,27,05,28,307,38,06,16,207,37,07,72,125,32*7B
$GPGSV,3,2,10,09,42,084,35,11,34,239,40,13,11,262,31,16,12,031,32*76
$GPGSV,3,3,10,20,60,281,35,30,52,195,39*72
$GLGSV,1,1,03,73,44,148,39,74,08,178,34,80,48,058,40*5A
$GAGSV,1,1,04,104,85,336,36,111,32,233,33,119,29,084,24,121,31,068,25*64
$BDGSV,1,1,04,223,07,193,38,224,46,072,40,225,45,161,41,233,43,116,42*6D
$GPGSA,A,3,07,20,30,09,11,05,06,16,13,04,,,1.0,0.6,0.8*30
$GNGSA,A,3,73,74,80,,,,,,,,,,1.0,0.6,0.8*2C
$GAGSA,A,3,104,111,119,121,,,,,,,,,1.0,0.6,0.8*23
$BDGSA,A,3,223,224,225,,,,,,,,,,1.0,0.6,0.8*1E
$GPRMC,094028.000,A,5151.5187,N,01022.2319,E,30.1,58.1,201123,,,A*67
$GPGGA,094029.000,5151.5241,N,01022.2424,E,1,20,0.6,601.6,M,47.4,M,,*5B
$GPVTG,49.5,T,,M,30.0,N,55.5,K,A*33
$GPGSV,3,1,10,04,09,084,31,05,28,307,37,06,16,207,37,07,72,125,32*73
$GPGSV,3,2,10,09,42,084,35,11,34,239,39,13,11,262,31,16,12,031,32*78
$GPGSV,3,3,10,20,60,281,35,30,52,195,39*72
$GLGSV,1,1,03,73,44,148,38,74,08,178,33,80,48,058,39*52
$GAGSV,1,1,04,104,85,336,35,111,32,233,33,119,29,084,26,121,31,068,25*65
$BDGSV,1,1,04,223,07,193,38,224,46,072,40,225,45,161,40,233,43,116,42*6C
$GPGSA,A,3,07,20,30,09,11,05,06,16,13,04,,,1.0,0.6,0.8*30
$GNGSA,A,3,73,74,80,,,,,,,,,,1.0,0.6,0.8*2C
$GAGSA,A,3,104,111,119,121,,,,,,,,,1.0,0.6,0.8*23
$BDGSA,A,3,223,224,225,,,,,,,,,,1.0,0.6,0.8*1E
$GPRMC,094029.000,A,5151.5241,N,01022.2424,E,30.0,49.5,201123,,,A*63
$GPGGA,094030.000,5151.5303,N,01022.2518,E,1,23,0.4,602.6,M,47.4,M,,*58
$GPVTG,44.7,T,,M,30.1,N,55.7,K,A*3F
$GPGSV,3,1,10,04,09,084,32,05,28,307,37,06,16,207,37,07,72,125,32*70
$GPGSV,3,2,10,09,42,084,35,11,34,239,39,13,11,262,31,16,12,031,31*7B
$GPGSV,3,3,10,20,60,281,35,30,52,195,39*72
$GLGSV,1,1,03,73,44,148,38,74,08,178,33,80,48,058,39*52
$GAGSV,1,1,04,104,85,336,35,111,32,233,32,119,29,084,28,121,31,068,25*6A
$BDGSV,2,1,07,207,09,078,32,210,07,092,31,214,23,114,31,223,07,193,37*68
$BDGSV,2,2,07,224,46,072,40,225,45,161,40,233,43,116,42*6B
$GPGSA,A,3,07,20,30,09,11,05,06,16,13,04,,,0.8,0.4,0.6*35
$GNGSA,A,3,73,74,80,,,,,,,,,,0.8,0.4,0.6*29
$GAGSA,A,3,104,111,119,121,,,,,,,,,0.8,0.4,0.6*26
$BDGSA,A,3,207,210,214,223,224,225,,,,,,,0.8,0.4,0.6*2A
$GPRMC,094030.000,A,5151.5303,N,01022.2518,E,30.1,44.7,201123,,,A*6C
$GPGGA,094031.000,5151.5365,N,01022.2607,E,1,22,0.6,601.9,M,47.4,M,,*5B
$GPVTG,40.4,T,,M,30.0,N,55.6,K,A*38
$GPGSV,3,1,10,04,09,084,32,05,28,307,36,06,16,207,36,07,72,125,32*70
$GPGSV,3,2,10,09,42,084,41,11,34,239,38,13,11,262,31,16,12,031,31*79
$GPGSV,3,3,10,20,60,281,35,30,52,195,38*73
$GLGSV,1,1,03,73,44,148,37,74,08,178,33,80,48,058,39*5D
$GAGSV,1,1,04,104,85,336,35,111,32,233,32,119,29,084,29,121,31,068,27*69
$BDGSV,3,1,09,207,09,078,32,209,21,055,26,210,07,092,30,214,23,114,34*64
$BDGSV,3,2,09,223,07,193,37,224,46,072,39,225,45,161,40,226,09,036,26*6A
$BDGSV,3,3,09,233,43,116,42*64
$GPGSA,A,3,07,20,30,09,11,05,06,16,13,04,,,0.8,0.6,0.6*37
$GNGSA,A,3,73,74,80,,,,,,,,,,0.8,0.6,0.6*2B
$GAGSA,A,3,104,111,119,121,,,,,,,,,0.8,0.6,0.6*24
$BDGSA,A,3,207,214,223,224,225,,,,,,,,0.8,0.6,0.6*1B
$GPRMC,094031.000,A,5151.5365,N,01022.2607,E,30.0,40.4,201123,,,A*66
$GPGGA,094032.000,5151.5437,N,01022.2692,E,1,24,0.4,600.5,M,47.4,M,,*5D
$GPVTG,35.8,T,,M,30.8,N,57.1,K,A*3B
$GPGSV,3,1,10,04,09,084,33,05,28,307,36,06,16,207,36,07,72,125,32*71
$GPGSV,3,2,10,09,42,084,42,11,34,239,38,13,11,262,30,16,12,031,31*7B
$GPGSV,3,3,10,20,60,281,35,30,52,195,38*73
$GLGSV,1,1,03,73,44,148,37,74,08,178,33,80,48,058,39*5D
$GAGSV,1,1,04,104,85,336,34,111,32,233,31,119,29,084,30,121,31,068,35*60
$BDGSV,3,1,09,207,09,078,32,209,21,055,28,210,07,092,28,214,23,114,34*63
$BDGSV,3,2,09,223,07,193,36,224,46,072,39,225,45,161,40,226,09,036,27*6A
$BDGSV,3,3,09,233,43,116,42*64
$GPGSA,A,3,07,20,30,09,11,05,06,16,13,04,,,0.8,0.4,0.6*35
$GNGSA,A,3,73,74,80,,,,,,,,,,0.8,0.4,0.6*29
$GAGSA,A,3,104,111,119,121,,,,,,,,,0.8,0.4,0.6*26
$BDGSA,A,3,207,209,214,223,224,225,226,,,,,,0.8,0.4,0.6*14
$GPRMC,094032.000,A,5151.5437,N,01022.2692,E,30.8,35.8,201123,,,A*6F
$GPGGA,094033.000,5151.5510,N,01022.2769,E,1,23,0.6,599.6,M,47.4,M,,*58
$GPVTG,30.6,T,,M,31.1,N,57.6,K,A*3F
$GPGSV,3,1,10,04,09,084,33,05,28,307,36,06,16,207,35,07,72,125,32*72
$GPGSV,3,2,10,09,42,084,42,11,34,239,38,13,11,262,29,16,12,031,31*73
$GPGSV,3,3,10,20,60,281,35,30,52,195,38*73
$GLGSV,1,1,03,73,44,148,37,74,08,178,32,80,48,058,39*5C
$GAGSV,1,1,04,104,85,336,34,111,32,233,31,119,29,084,38,121,31,068,35*68
$BDGSV,3,1,10,205,15,125,38,207,09,078,31,209,21,055,28,210,07,092,27*6C
$BDGSV,3,2,10,214,23,114,34,223,07,193,36,224,46,072,40,225,45,161,39*68
$BDGSV,3,3,10,226,09,036,27,233,43,116,41*60
$GPGSA,A,3,07,20,30,09,11,05,06,16,04,,,,0.8,0.6,0.6*35
$GNGSA,A,3,73,74,80,,,,,,,,,,0.8,0.6,0.6*2B
$GAGSA,A,3,104,111,119,121,,,,,,,,,0.8,0.6,0.6*24
$BDGSA,A,3,207,209,214,223,224,225,226,,,,,,0.8,0.6,0.6*16
$GPRMC,094033.000,A,5151.5510,N,01022.2769,E,31.1,30.6,201123,,,A*6C
$GPGGA,094034.000,5151.5587,N,01022.2835,E,1,23,0.4,599.0,M,47.4,M,,*53
$GPVTG,27.7,T,,M,31.5,N,58.3,K,A*36
$GPGSV,3,1,10,04,09,084,34,05,28,307,35,06,16,207,34,07,72,125,32*77
$GPGSV,3,2,10,09,42,084,43,11,34,239,37,13,11,262,28,16,12,031,31*7C
$GPGSV,3,3,10,20,60,281,35,30,52,195,41*7D
$GLGSV,1,1,03,73,44,148,37,74,08,178,31,80,48,058,39*5F
$GAGSV,1,1,04,104,85,336,34,111,32,233,30,119,29,084,39,121,31,068,35*68
$BDGSV,3,1,10,205,15,125,38,207,09,078,31,209,21,055,28,210,07,092,25*6E
$BDGSV,3,2,10,214,23,114,33,223,07,193,35,224,46,072,40,225,45,161,40*62
$BDGSV,3,3,10,226,09,036,27,233,43,116,41*60
$GPGSA,A,3,07,20,30,09,11,05,06,16,04,,,,0.8,0.4,0.6*37
$GNGSA,A,3,73,74,80,,,,,,,,,,0.8,0.4,0.6*29
$GAGSA,A,3,104,111,121,,,,,,,,,,0.8,0.4,0.6*1F
$BDGSA,A,3,205,207,209,214,223,224,225,226,,,,,0.8,0.4,0.6*23
$GPRMC,094034.000,A,5151.5587,N,01022.2835,E,31.5,27.7,201123,,,A*60
$GPGGA,094035.000,5151.5668,N,01022.2899,E,1,22,0.6,597.8,M,47.4,M,,*53
$GPVTG,25.6,T,,M,30.7,N,56.8,K,A*33
$GPGSV,3,1,10,04,09,084,34,05,28,307,35,06,16,207,34,07,72,125,32*77
$GPGSV,3,2,10,09,42,084,43,11,34,239,37,13,11,262,27,16,12,031,30*72
$GPGSV,3,3,10,20,60,281,34,30,52,195,41*7C
$GLGSV,1,1,04,71,71,338,37,73,44,148,36,74,08,178,31,80,48,058,39*65
$GAGSV,1,1,04,104,85,336,34,111,32,233,30,119,29,084,39,121,31,068,35*68
$BDGSV,3,1,10,205,15,125,38,207,09,078,32,209,21,055,28,210,07,092,24*6C
$BDGSV,3,2,10,214,23,114,33,223,07,193,35,224,46,072,40,225,45,161,41*63
$BDGSV,3,3,10,226,09,036,27,233,43,116,41*60
$GPGSA,A,3,07,20,30,09,11,05,06,16,04,,,,0.8,0.6,0.6*35
$GNGSA,A,3,73,74,80,,,,,,,,,,0.8,0.6,0.6*2B
$GAGSA,A,3,104,121,,,,,,,,,,,0.8,0.6,0.6*2C
$BDGSA,A,3,205,207,209,214,223,224,225,226,,,,,0.8,0.6,0.6*21
$GPRMC,094035.000,A,5151.5668,N,01022.2899,E,30.7,25.6,201123,,,A*65
$GPGGA,094036.000,5151.5747,N,01022.2955,E,1,24,0.4,597.7,M,47.4,M,,*56
$GPVTG,23.7,T,,M,31.5,N,58.4,K,A*35
$GPGSV,3,1,10,04,09,084,34,05,28,307,34,06,16,207,34,07,72,125,32*76
$GPGSV,3,2,10,09,42,084,43,11,34,239,37,13,11,262,25,16,12,031,30*70
$GPGSV,3,3,10,20,60,281,34,30,52,195,41*7C
$GLGSV,1,1,04,71,71,338,39,73,44,148,36,74,08,178,30,80,48,058,39*6A
$GAGSV,1,1,04,104,85,336,34,111,32,233,30,119,29,084,39,121,31,068,37*6A
$BDGSV,3,1,10,205,15,125,38,207,09,078,33,209,21,055,28,210,07,092,22*6B
$BDGSV,3,2,10,214,23,114,33,223,07,193,34,224,46,072,41,225,45,161,41*63
$BDGSV,3,3,10,226,09,036,27,233,43,116,41*60
$GPGSA,A,3,07,20,30,09,11,05,06,16,04,,,,0.8,0.4,0.6*37
$GNGSA,A,3,71,73,74,80,,,,,,,,,0.8,0.4,0.6*2F
$GAGSA,A,3,104,111,121,,,,,,,,,,0.8,0.4,0.6*1F
$BDGSA,A,3,205,207,209,214,223,224,225,226,,,,,0.8,0.4,0.6*23
$GPRMC,094036.000,A,5151.5747,N,01022.2955,E,31.5,23.7,201123,,,A*6F
$GPGGA,094037.000,5151.5827,N,01022.3006,E,1,23,0.6,597.5,M,47.4,M,,*57
$GPVTG,23.2,T,,M,31.2,N,57.7,K,A*3B
$GPGSV,3,1,10,04,09,084,35,05,28,307,33,06,16,207,33,07,72,125,32*77
$GPGSV,3,2,10,09,42,084,43,11,34,239,36,13,11,262,24,16,12,031,30*70
$GPGSV,3,3,10,20,60,281,34,30,52,195,41*7C
$GLGSV,1,1,04,71,71,338,40,73,44,148,36,74,08,178,30,80,48,058,39*64
$GAGSV,1,1,04,104,85,336,33,111,32,233,30,119,29,084,39,121,31,068,42*6F
$BDGSV,3,1,10,205,15,125,38,207,09,078,33,209,21,055,28,210,07,092,21*68
$BDGSV,3,2,10,214,23,114,33,223,07,193,34,224,46,072,42,225,45,161,42*63
$BDGSV,3,3,10,226,09,036,27,233,43,116,41*60
$GPGSA,A,3,07,20,30,09,11,05,06,16,04,,,,0.8,0.6,0.6*35
$GNGSA,A,3,71,73,80,,,,,,,,,,0.8,0.6,0.6*2E
$GAGSA,A,3,104,111,121,,,,,,,,,,0.8,0.6,0.6*1D
$BDGSA,A,3,205,207,209,214,223,224,225,226,,,,,0.8,0.6,0.6*21
$GPRMC,094037.000,A,5151.5827,N,01022.3006,E,31.2,23.2,201123,,,A*6B
$GPGGA,094038.000,5151.5907,N,01022.3051,E,1,24,0.4,597.6,M,47.4,M,,*5F
$GPVTG,20.5,T,,M,30.0,N,55.6,K,A*3F
$GPGSV,3,1,10,04,09,084,35,05,28,307,33,06,16,207,33,07,72,125,32*77
$GPGSV,3,2,10,09,42,084,43,11,34,239,36,13,11,262,22,16,12,031,29*7E
$GPGSV,3,3,10,20,60,281,34,30,52,195,41*7C
$GLGSV,1,1,04,71,71,338,40,73,44,148,36,74,08,178,29,80,48,058,39*6C
$GAGSV,1,1,04,104,85,336,33,111,32,233,29,119,29,084,39,121,31,068,42*67
$BDGSV,3,1,10,205,15,125,38,207,09,078,33,209,21,055,28,210,07,092,19*63
$BDGSV,3,2,10,214,23,114,33,223,07,193,34,224,46,072,42,225,45,161,42*63
$BDGSV,3,3,10,226,09,036,27,233,43,116,41*60
$GPGSA,A,3,07,20,30,09,11,05,06,16,04,,,,0.8,0.4,0.6*37
$GNGSA,A,3,71,73,74,80,,,,,,,,,0.8,0.4,0.6*2F
$GAGSA,A,3,104,111,121,,,,,,,,,,0.8,0.4,0.6*1F
$BDGSA,A,3,205,207,209,214,223,224,225,226,,,,,0.8,0.4,0.6*23
$GPRMC,094038.000,A,5151.5907,N,01022.3051,E,30.0,20.5,201123,,,A*62
$GPGGA,094039.000,5151.5988,N,01022.3089,E,1,24,0.4,597.7,M,47.4,M,,*5D
$GPVTG,15.8,T,,M,29.5,N,54.6,K,A*38
$GPGSV,3,1,10,04,09,084,35,05,28,307,33,06,16,207,33,07,72,125,32*77
$GPGSV,3,2,10,09,42,084,42,11,34,239,36,13,11,262,21,16,12,031,29*7C
$GPGSV,3,3,10,20,60,281,34,30,52,195,41*7C
$GLGSV,1,1,04,71,71,338,40,73,44,148,36,74,08,178,29,80,48,058,39*6C
$GAGSV,1,1,04,104,85,336,33,111,32,233,29,119,29,084,38,121,31,068,43*67
$BDGSV,3,1,10,205,15,125,38,207,09,078,34,209,21,055,29,210,07,092,18*64
$BDGSV,3,2,10,214,23,114,33,223,07,193,34,224,46,072,43,225,45,161,42*62
$BDGSV,3,3,10,226,09,036,27,233,43,116,41*60
$GPGSA,A,3,07,20,30,09,11,05,06,16,04,,,,0.8,0.4,0.6*37
$GNGSA,A,3,71,73,74,80,,,,,,,,,0.8,0.4,0.6*2F
$GAGSA,A,3,104,111,121,,,,,,,,,,0.8,0.4,0.6*1F
$BDGSA,A,3,205,207,209,214,223,224,225,226,,,,,0.8,0.4,0.6*23
$GPRMC,094039.000,A,5151.5988,N,01022.3089,E,29.5,15.8,201123,,,A*67
$GPGGA,094040.000,5151.6067,N,01022.3116,E,1,23,0.6,597.9,M,47.4,M,,*54
$GPVTG,8.4,T,,M,27.7,N,51.3,K,A*04
$GPGSV,3,1,10,04,09,084,35,05,28,307,32,06,16,207,32,07,72,125,36*73
$GPGSV,3,2,10,09,42,084,42,11,34,239,36,13,11,262,19,16,12,031,29*77
$GPGSV,3,3,10,20,60,281,34,30,52,195,40*7D
$GLGSV,1,1,04,71,71,338,40,73,44,148,36,74,08,178,28,80,48,058,39*6D
$GAGSV,1,1,04,104,85,336,33,111,32,233,29,119,29,084,37,121,31,068,43*68
$BDGSV,3,1,10,205,15,125,38,207,09,078,34,209,21,055,33,210,07,092,16*61
$BDGSV,3,2,10,214,23,114,33,223,07,193,33,224,46,072,43,225,45,161,42*65
$BDGSV,3,3,10,226,09,036,32,233,43,116,41*64
$GPGSA,A,3,07,20,30,09,11,05,06,16,04,,,,0.8,0.6,0.6*35
$GNGSA,A,3,71,73,80,,,,,,,,,,0.8,0.6,0.6*2E
$GAGSA,A,3,104,111,121,,,,,,,,,,0.8,0.6,0.6*1D
$BDGSA,A,3,205,207,209,214,223,224,225,226,,,,,0.8,0.6,0.6*21
$GPRMC,094040.000,A,5151.6067,N,01022.3116,E,27.7,8.4,201123,,,A*59
$GPGGA,094041.000,5151.6145,N,01022.3122,E,1,22,0.6,597.2,M,47.4,M,,*59
$GPVTG,359.0,T,,M,27.0,N,50.0,K,A*02
$GPGSV,3,1,10,04,09,084,35,05,28,307,32,06,16,207,32,07,72,125,40*72
$GPGSV,3,2,10,09,42,084,42,11,34,239,35,13,11,262,18,16,12,031,30*7D
$GPGSV,3,3,10,20,60,281,34,30,52,195,40*7D
$GLGSV,1,1,04,71,71,338,39,73,44,148,36,74,08,178,28,80,48,058,39*63
$GAGSV,1,1,04,104,85,336,33,111,32,233,29,119,29,084,37,121,31,068,43*68
$BDGSV,3,1,10,205,15,125,38,207,09,078,34,209,21,055,37,210,07,092,15*66
$BDGSV,3,2,10,214,23,114,33,223,07,193,32,224,46,072,43,225,45,161,42*64
$BDGSV,3,3,10,226,09,036,39,233,43,116,40*6E
$GPGSA,A,3,07,20,30,09,11,05,06,16,04,,,,1.0,0.6,0.6*3C
$GNGSA,A,3,71,73,80,,,,,,,,,,1.0,0.6,0.6*27
$GAGSA,A,3,104,121,,,,,,,,,,,1.0,0.6,0.6*25
$BDGSA,A,3,205,207,209,214,223,224,225,226,,,,,1.0,0.6,0.6*28
$GPRMC,094041.000,A,5151.6145,N,01022.3122,E,27.0,359.0,201123,,,A*5A
$GPGGA,094042.000,5151.6218,N,01022.3116,E,1,23,0.6,597.3,M,47.4,M,,*56
$GPVTG,357.0,T,,M,26.3,N,48.7,K,A*00
$GPGSV,3,1,10,04,09,084,35,05,28,307,32,06,16,207,32,07,72,125,40*72
$GPGSV,3,2,10,09,42,084,42,11,34,239,35,13,11,262,16,16,12,031,37*74
$GPGSV,3,3,10,20,60,281,34,30,52,195,40*7D
$GLGSV,1,1,04,71,71,338,38,73,44,148,36,74,08,178,28,80,48,058,39*62
$GAGSV,1,1,04,104,85,336,33,111,32,233,29,119,29,084,36,121,31,068,42*68
$BDGSV,3,1,10,205,15,125,38,207,09,078,34,209,21,055,37,210,07,092,14*67
$BDGSV,3,2,10,214,23,114,33,223,07,193,31,224,46,072,43,225,45,161,42*67
$BDGSV,3,3,10,226,09,036,38,233,43,116,40*6F
$GPGSA,A,3,07,20,30,09,11,05,06,16,04,,,,0.8,0.6,0.6*35
$GNGSA,A,3,71,73,80,,,,,,,,,,0.8,0.6,0.6*2E
$GAGSA,A,3,104,111,121,,,,,,,,,,0.8,0.6,0.6*1D
$BDGSA,A,3,205,207,209,214,223,224,225,226,,,,,0.8,0.6,0.6*21
$GPRMC,094042.000,A,5151.6218,N,01022.3116,E,26.3,357.0,201123,,,A*59
$GPGGA,094043.000,5151.6292,N,01022.3110,E,1,22,0.6,596.4,M,47.4,M,,*54
$GPVTG,358.3,T,,M,26.4,N,48.9,K,A*05
$GPGSV,3,1,10,04,09,084,35,05,28,307,32,06,16,207,31,07,72,125,39*7F
$GPGSV,3,2,10,09,42,084,42,11,34,239,35,13,11,262,15,16,12,031,37*77
$GPGSV,3,3,10,20,60,281,34,30,52,195,40*7D
$GLGSV,1,1,04,71,71,338,37,73,44,148,35,74,08,178,27,80,48,057,40*60
$GAGSV,1,1,04,104,85,336,33,111,32,233,29,119,29,084,36,121,31,068,42*68
$BDGSV,3,1,10,205,15,125,38,207,09,078,34,209,21,055,37,210,07,092,13*60
$BDGSV,3,2,10,214,23,114,34,223,07,193,31,224,46,072,43,225,45,161,41*63
$BDGSV,3,3,10,226,09,036,38,233,43,116,40*6F
$GPGSA,A,3,07,20,30,09,11,05,06,16,04,,,,1.0,0.6,0.6*3C
$GNGSA,A,3,71,73,80,,,,,,,,,,1.0,0.6,0.6*27
$GAGSA,A,3,104,121,,,,,,,,,,,1.0,0.6,0.6*25
$BDGSA,A,3,205,207,209,214,223,224,225,226,,,,,1.0,0.6,0.6*28
$GPRMC,094043.000,A,5151.6292,N,01022.3110,E,26.4,358.3,201123,,,A*57
$GPGGA,094044.000,5151.6366,N,01022.3118,E,1,24,0.4,595.2,M,47.4,M,,*50
$GPVTG,7.2,T,,M,26.7,N,49.5,K,A*03
$GPGSV,3,1,10,04,09,084,35,05,28,307,31,06,16,207,31,07,72,125,39*7C
$GPGSV,3,2,10,09,42,084,42,11,34,239,35,13,11,262,14,16,12,031,36*77
$GPGSV,3,3,10,20,60,281,34,30,52,195,39*73
$GLGSV,1,1,04,71,71,338,37,73,44,148,35,74,08,178,27,80,48,057,40*60
$GAGSV,1,1,04,104,85,336,33,111,32,233,29,119,29,084,35,121,31,068,41*68
$BDGSV,3,1,10,205,15,125,38,207,09,078,34,209,21,055,37,210,07,092,12*61
$BDGSV,3,2,10,214,23,114,34,223,07,193,30,224,46,072,43,225,45,161,41*62
$BDGSV,3,3,10,226,09,036,38,233,43,116,40*6F
$GPGSA,A,3,07,20,30,09,11,05,06,16,04,,,,0.8,0.4,0.6*37
$GNGSA,A,3,71,73,74,80,,,,,,,,,0.8,0.4,0.6*2F
$GAGSA,A,3,104,111,121,,,,,,,,,,0.8,0.4,0.6*1F
$BDGSA,A,3,205,207,209,214,223,224,225,226,,,,,0.8,0.4,0.6*23
$GPRMC,094044.000,A,5151.6366,N,01022.3118,E,26.7,7.2,201123,,,A*59
$GPGGA,094045.000,5151.6438,N,01022.3142,E,1,22,0.6,593.5,M,47.4,M,,*57
$GPVTG,16.9,T,,M,27.3,N,50.5,K,A*35
$GPGSV,3,1,10,04,09,084,35,05,28,307,31,06,16,207,31,07,72,125,39*7C
$GPGSV,3,2,10,09,42,084,41,11,34,239,35,13,11,262,13,16,12,031,36*73
$GPGSV,3,3,10,20,60,281,34,30,52,195,39*73
$GLGSV,1,1,04,71,71,338,36,73,44,148,35,74,08,178,26,80,48,057,40*60
$GAGSV,1,1,04,104,85,336,33,111,32,233,29,119,29,084,35,121,31,068,41*68
$BDGSV,3,1,09,205,15,125,38,207,09,078,34,209,21,055,37,214,23,114,34*60
$BDGSV,3,2,09,223,07,193,30,224,46,072,43,225,45,161,41,226,09,036,37*61
$BDGSV,3,3,09,233,43,116,40*66
$GPGSA,A,3,07,20,30,09,11,05,06,16,04,,,,1.0,0.6,0.6*3C
$GNGSA,A,3,71,73,80,,,,,,,,,,1.0,0.6,0.6*27
$GAGSA,A,3,104,121,,,,,,,,,,,1.0,0.6,0.6*25
$BDGSA,A,3,205,207,209,214,223,224,225,226,,,,,1.0,0.6,0.6*28
$GPRMC,094045.000,A,5151.6438,N,01022.3142,E,27.3,16.9,201123,,,A*65
$GPGGA,094046.000,5151.6509,N,01022.3185,E,1,23,0.6,591.9,M,47.4,M,,*53
$GPVTG,21.8,T,,M,27.7,N,51.4,K,A*34
$GPGSV,3,1,10,04,09,084,35,05,28,307,31,06,16,207,31,07,72,125,38*7D
$GPGSV,3,2,10,09,42,084,41,11,34,239,34,13,11,262,13,16,12,031,36*72
$GPGSV,3,3,10,20,60,281,33,30,52,195,39*74
$GLGSV,1,1,04,71,71,338,36,73,44,148,38,74,08,178,26,80,48,057,40*6D
$GAGSV,1,1,04,104,85,336,33,111,32,233,29,119,29,084,35,121,31,068,41*68
$BDGSV,3,1,09,205,15,125,38,207,09,078,35,209,21,055,37,214,23,114,34*61
$BDGSV,3,2,09,223,07,193,29,224,46,072,43,225,45,161,41,226,09,036,37*69
$BDGSV,3,3,09,233,43,116,40*66
$GPGSA,A,3,07,20,30,09,11,05,06,16,04,,,,0.8,0.6,0.6*35
$GNGSA,A,3,71,73,80,,,,,,,,,,0.8,0.6,0.6*2E
$GAGSA,A,3,104,111,121,,,,,,,,,,0.8,0.6,0.6*1D
$BDGSA,A,3,205,207,209,214,223,224,225,226,,,,,0.8,0.6,0.6*21
$GPRMC,094046.000,A,5151.6509,N,01022.3185,E,27.7,21.8,201123,,,A*6F
$GPGGA,094047.000,5151.6579,N,01022.3231,E,1,24,0.4,590.3,M,47.4,M,,*57
$GPVTG,23.5,T,,M,27.9,N,51.7,K,A*36
$GPGSV,3,1,10,04,09,084,35,05,28,307,31,06,16,207,31,07,72,125,37*72
$GPGSV,3,2,10,09,42,084,41,11,34,239,34,13,11,262,12,16,12,031,35*70
$GPGSV,3,3,10,20,60,281,33,30,52,195,38*75
$GLGSV,1,1,04,71,71,338,36,73,44,148,44,74,08,178,32,80,48,057,40*63
$GAGSV,1,1,04,104,85,336,32,111,32,233,29,119,29,084,35,121,31,068,41*69
$BDGSV,3,1,09,205,15,125,38,207,09,078,35,209,21,055,37,214,23,114,34*61
$BDGSV,3,2,09,223,07,193,31,224,46,072,43,225,45,161,40,226,09,036,37*61
$BDGSV,3,3,09,233,43,116,40*66
$GPGSA,A,3,07,20,30,09,11,05,06,16,04,,,,0.8,0.4,0.6*37
$GNGSA,A,3,71,73,74,80,,,,,,,,,0.8,0.4,0.6*2F
$GAGSA,A,3,104,111,121,,,,,,,,,,0.8,0.4,0.6*1F
$BDGSA,A,3,205,207,209,214,223,224,225,226,,,,,0.8,0.4,0.6*23
$GPRMC,094047.000,A,5151.6579,N,01022.3231,E,27.9,23.5,201123,,,A*64
$GPGGA,094048.000,5151.6647,N,01022.3291,E,1,24,0.4,589.6,M,47.4,M,,*51
$GPVTG,26.5,T,,M,28.1,N,52.1,K,A*31
$GPGSV,3,1,09,04,09,084,36,05,28,307,31,06,16,207,30,07,72,125,36*79
$GPGSV,3,2,09,09,42,084,46,11,34,239,34,16,12,031,35,20,60,281,33*77
$GPGSV,3,3,09,30,52,195,38*42
$GLGSV,1,1,04,71,71,339,35,73,44,148,44,74,08,178,32,80,48,057,40*61
$GAGSV,1,1,04,104,85,336,32,111,32,233,29,119,29,084,38,121,31,068,40*65
$BDGSV,3,1,09,205,15,125,38,207,09,078,36,209,21,055,36,214,23,114,34*63
$BDGSV,3,2,09,223,07,193,34,224,46,072,43,225,45,161,40,226,09,036,36*65
$BDGSV,3,3,09,233,43,116,41*67
$GPGSA,A,3,07,20,30,09,11,05,06,16,04,,,,0.8,0.4,0.6*37
$GNGSA,A,3,71,73,74,80,,,,,,,,,0.8,0.4,0.6*2F
$GAGSA,A,3,104,111,121,,,,,,,,,,0.8,0.4,0.6*1F
$BDGSA,A,3,205,207,209,214,223,224,225,226,,,,,0.8,0.4,0.6*23
$GPRMC,094048.000,A,5151.6647,N,01022.3291,E,28.1,26.5,201123,,,A*6D
$GPGGA,094049.000,5151.6714,N,01022.3360,E,1,24,0.4,588.7,M,47.4,M,,*58
$GPVTG,31.8,T,,M,28.1,N,51.9,K,A*31
$GPGSV,3,1,09,04,09,084,41,05,28,307,30,06,16,207,30,07,72,125,36*78
$GPGSV,3,2,09,09,42,084,46,11,34,239,34,16,12,031,34,20,60,281,33*76
$GPGSV,3,3,09,30,52,195,38*42
$GLGSV,1,1,04,71,71,339,35,73,44,148,44,74,08,178,32,80,48,057,40*61
$GAGSV,1,1,04,104,85,336,32,111,32,233,28,119,29,084,38,121,31,068,40*64
$BDGSV,3,1,09,205,15,125,37,207,09,078,36,209,21,055,35,214,23,114,34*6F
$BDGSV,3,2,09,223,07,193,34,224,46,072,43,225,45,161,40,226,09,036,35*66
$BDGSV,3,3,09,233,43,116,41*67
$GPGSA,A,3,07,20,30,09,11,05,06,16,04,,,,0.8,0.4,0.6*37
$GNGSA,A,3,71,73,74,80,,,,,,,,,0.8,0.4,0.6*2F
$GAGSA,A,3,104,111,121,,,,,,,,,,0.8,0.4,0.6*1F
$BDGSA,A,3,205,207,209,214,223,224,225,226,,,,,0.8,0.4,0.6*23
$GPRMC,094049.000,A,5151.6714,N,01022.3360,E,28.1,31.8,201123,,,A*6F
$GPGGA,094050.000,5151.6774,N,01022.3432,E,1,23,0.4,588.4,M,47.4,M,,*52
$GPVTG,41.0,T,,M,26.3,N,48.7,K,A*34
$GPGSV,3,1,09,04,09,084,40,05,28,307,30,06,16,207,30,07,72,125,35*7A
$GPGSV,3,2,09,09,42,084,45,11,34,239,34,16,12,031,34,20,60,281,33*75
$GPGSV,3,3,09,30,52,195,37*4D
$GLGSV,1,1,04,71,71,339,36,73,44,148,43,74,08,178,32,80,48,057,40*65
$GAGSV,1,1,04,104,85,336,31,111,32,233,28,119,29,084,38,121,31,068,40*67
$BDGSV,3,1,09,205,15,125,37,207,09,078,35,209,21,055,35,214,23,114,34*6C
$BDGSV,3,2,09,223,07,193,34,224,46,072,43,225,45,161,40,226,09,036,34*67
$BDGSV,3,3,09,233,43,116,41*67
$GPGSA,A,3,07,20,30,09,11,05,06,16,04,,,,0.8,0.4,0.6*37
$GNGSA,A,3,71,73,74,80,,,,,,,,,0.8,0.4,0.6*2F
$GAGSA,A,3,104,111,121,,,,,,,,,,0.8,0.4,0.6*1F
$BDGSA,A,3,205,209,214,223,224,225,226,,,,,,0.8,0.4,0.6*16
$GPRMC,094050.000,A,5151.6774,N,01022.3432,E,26.3,41.0,201123,,,A*62
$GPGGA,094051.000,5151.6819,N,01022.3517,E,1,23,0.4,588.2,M,47.4,M,,*57
$GPVTG,49.6,T,,M,25.3,N,46.9,K,A*39
$GPGSV,3,1,09,04,09,084,40,05,28,307,30,06,16,207,30,07,72,125,35*7A
$GPGSV,3,2,09,09,42,084,45,11,34,239,34,16,12,031,34,20,60,281,33*75
$GPGSV,3,3,09,30,52,195,39*43
$GLGSV,2,1,05,70,44,094,29,71,71,339,36,73,44,148,42,74,08,178,32*65
$GLGSV,2,2,05,80,48,057,39*5C
$GAGSV,1,1,04,104,85,336,31,111,32,233,28,119,29,084,38,121,31,068,39*69
$BDGSV,3,1,09,205,15,125,37,207,09,078,33,209,21,055,35,214,23,114,34*6A
$BDGSV,3,2,09,223,07,193,34,224,46,072,43,225,45,161,40,226,09,036,34*67
$BDGSV,3,3,09,233,43,116,41*67
$GPGSA,A,3,07,20,30,09,11,05,06,16,04,,,,1.0,0.4,0.8*30
$GNGSA,A,3,71,73,80,,,,,,,,,,1.0,0.4,0.8*2B
$GAGSA,A,3,104,111,119,121,,,,,,,,,1.0,0.4,0.8*21
$BDGSA,A,3,205,209,214,223,224,225,226,,,,,,1.0,0.4,0.8*11
$GPRMC,094051.000,A,5151.6819,N,01022.3517,E,25.3,49.6,201123,,,A*6C
$GPGGA,094052.000,5151.6859,N,01022.3606,E,1,23,0.6,588.9,M,47.4,M,,*5A
$GPVTG,54.6,T,,M,25.0,N,46.3,K,A*3C
$GPGSV,3,1,09,04,09,084,40,05,28,307,30,06,16,207,31,07,72,125,34*7A
$GPGSV,3,2,09,09,42,084,45,11,34,239,34,16,12,031,33,20,60,281,33*72
$GPGSV,3,3,09,30,52,195,39*43
$GLGSV,2,1,05,70,44,094,29,71,71,339,36,73,44,148,42,74,08,178,32*65
$GLGSV,2,2,05,80,48,057,39*5C
$GAGSV,1,1,04,104,85,336,31,111,32,233,28,119,29,084,37,121,31,068,38*67
$BDGSV,3,1,09,205,15,125,37,207,09,078,32,209,21,055,34,214,23,114,34*6A
$BDGSV,3,2,09,223,07,193,34,224,46,072,42,225,45,161,40,226,09,036,33*61
$BDGSV,3,3,09,233,43,116,41*67
$GPGSA,A,3,07,20,30,09,11,05,06,16,04,,,,0.8,0.6,0.6*35
$GNGSA,A,3,70,71,73,74,80,,,,,,,,0.8,0.6,0.6*2A
$GAGSA,A,3,104,121,,,,,,,,,,,0.8,0.6,0.6*2C
$BDGSA,A,3,205,209,214,223,224,225,226,,,,,,0.8,0.6,0.6*14
$GPRMC,094052.000,A,5151.6859,N,01022.3606,E,25.0,54.6,201123,,,A*67
$GPGGA,094053.000,5151.6884,N,01022.3709,E,1,23,0.6,588.8,M,47.4,M,,*54
$GPVTG,76.1,T,,M,25.7,N,47.5,K,A*3B
$GPGSV,3,1,09,04,09,084,40,05,28,307,30,06,16,207,35,07,72,125,34*7E
$GPGSV,3,2,09,09,42,084,43,11,34,239,33,16,12,031,33,20,60,281,32*72
$GPGSV,3,3,09,30,52,195,39*43
$GLGSV,2,1,05,70,44,094,29,71,71,339,36,73,44,148,41,74,08,178,32*66
$GLGSV,2,2,05,80,48,057,38*5D
$GAGSV,1,1,04,104,85,336,31,111,32,233,28,119,29,084,36,121,31,068,37*69
$BDGSV,3,1,09,205,15,125,37,207,09,078,30,209,21,055,34,214,23,114,35*69
$BDGSV,3,2,09,223,07,193,33,224,46,072,42,225,45,161,40,226,09,036,33*66
$BDGSV,3,3,09,233,43,116,41*67
$GPGSA,A,3,07,20,30,09,11,05,06,16,04,,,,1.0,0.6,0.8*32
$GNGSA,A,3,70,71,73,74,80,,,,,,,,1.0,0.6,0.8*2D
$GAGSA,A,3,104,111,121,,,,,,,,,,1.0,0.6,0.8*1A
$BDGSA,A,3,205,209,214,223,224,225,,,,,,,1.0,0.6,0.8*25
$GPRMC,094053.000,A,5151.6884,N,01022.3709,E,25.7,76.1,201123,,,A*68
$GPGGA,094054.000,5151.6893,N,01022.3823,E,1,23,0.6,588.3,M,47.4,M,,*59
$GPVTG,86.4,T,,M,25.4,N,47.1,K,A*36
$GPGSV,3,1,09,04,09,084,38,05,28,307,30,06,16,207,35,07,72,125,34*71
$GPGSV,3,2,09,09,42,084,43,11,34,239,36,16,12,031,32,20,60,281,32*76
$GPGSV,3,3,09,30,52,195,39*43
$GLGSV,2,1,05,70,44,094,29,71,71,339,36,73,44,148,40,74,08,178,32*67
$GLGSV,2,2,05,80,48,057,38*5D
$GAGSV,1,1,04,104,85,336,30,111,32,233,29,119,29,084,35,121,31,068,37*6A
$BDGSV,3,1,09,205,15,125,37,207,09,078,29,209,21,055,33,214,23,114,35*66
$BDGSV,3,2,09,223,07,193,34,224,46,072,41,225,45,161,40,226,09,036,32*63
$BDGSV,3,3,09,233,43,116,41*67
$GPGSA,A,3,07,20,30,09,11,05,06,16,04,,,,1.0,0.6,0.8*32
$GNGSA,A,3,70,71,73,74,80,,,,,,,,1.0,0.6,0.8*2D
$GAGSA,A,3,104,111,121,,,,,,,,,,1.0,0.6,0.8*1A
$BDGSA,A,3,205,209,214,223,224,225,,,,,,,1.0,0.6,0.8*25
$GPRMC,094054.000,A,5151.6893,N,01022.3823,E,25.4,86.4,201123,,,A*67
$GPGGA,094055.000,5151.6896,N,01022.3937,E,1,22,0.6,588.0,M,47.4,M,,*5B
$GPVTG,88.9,T,,M,25.5,N,47.2,K,A*37
$GPGSV,3,1,09,04,09,084,38,05,28,307,30,06,16,207,35,07,72,125,36*73
$GPGSV,3,2,09,09,42,084,42,11,34,239,38,16,12,031,32,20,60,281,32*79
$GPGSV,3,3,09,30,52,195,39*43
$GLGSV,2,1,05,70,44,094,28,71,71,339,36,73,44,148,40,74,08,178,31*65
$GLGSV,2,2,05,80,48,057,39*5C
$GAGSV,2,1,05,104,85,336,30,110,17,207,27,111,32,233,29,119,29,084,34*65
$GAGSV,2,2,05,121,31,068,36*66
$BDGSV,3,1,09,205,15,125,36,207,09,078,27,209,21,055,33,214,23,114,35*69
$BDGSV,3,2,09,223,07,193,35,224,46,072,40,225,45,161,40,226,09,036,31*60
$BDGSV,3,3,09,233,43,116,40*66
$GPGSA,A,3,07,20,30,09,11,05,06,16,04,,,,1.0,0.6,0.8*32
$GNGSA,A,3,70,71,73,74,80,,,,,,,,1.0,0.6,0.8*2D
$GAGSA,A,3,104,121,,,,,,,,,,,1.0,0.6,0.8*2B
$BDGSA,A,3,205,209,214,223,224,225,,,,,,,1.0,0.6,0.8*25
$GPRMC,094055.000,A,5151.6896,N,01022.3937,E,25.5,88.9,201123,,,A*65
$GPGGA,094056.000,5151.6901,N,01022.4054,E,1,24,0.4,587.4,M,47.4,M,,*53
$GPVTG,86.9,T,,M,25.9,N,48.0,K,A*38
$GPGSV,3,1,09,04,09,084,37,05,28,307,29,06,16,207,35,07,72,125,36*74
$GPGSV,3,2,09,09,42,084,41,11,34,239,38,16,12,031,32,20,60,281,32*7A
$GPGSV,3,3,09,30,52,195,39*43
$GLGSV,2,1,06,70,44,094,28,71,71,339,35,73,44,148,39,74,08,178,31*6B
$GLGSV,2,2,06,80,48,057,41,86,15,241,26*69
$GAGSV,2,1,05,104,85,339,32,110,17,207,32,111,32,233,29,119,29,084,34*6C
$GAGSV,2,2,05,121,31,068,36*66
$BDGSV,3,1,09,205,15,125,36,207,09,078,26,209,21,055,32,214,23,114,34*68
$BDGSV,3,2,09,223,07,193,34,224,46,072,40,225,45,161,40,226,09,036,31*61
$BDGSV,3,3,09,233,43,116,40*66
$GPGSA,A,3,07,20,30,09,11,05,06,16,04,,,,0.8,0.4,0.6*37
$GNGSA,A,3,70,71,73,74,80,,,,,,,,0.8,0.4,0.6*28
$GAGSA,A,3,104,110,111,121,,,,,,,,,0.8,0.4,0.6*2F
$BDGSA,A,3,205,209,214,224,225,226,,,,,,,0.8,0.4,0.6*25
$GPRMC,094056.000,A,5151.6901,N,01022.4054,E,25.9,86.9,201123,,,A*60
$GPGGA,094057.000,5151.6913,N,01022.4170,E,1,23,0.4,586.6,M,47.4,M,,*52
$GPVTG,80.9,T,,M,26.2,N,48.5,K,A*33
$GPGSV,3,1,09,04,09,084,36,05,28,307,29,06,16,207,36,07,72,124,36*77
$GPGSV,3,2,09,09,42,084,40,11,34,239,38,16,12,031,31,20,60,281,32*78
$GPGSV,3,3,09,30,52,195,39*43
$GLGSV,2,1,06,70,44,094,28,71,71,339,35,73,44,148,39,74,08,178,31*6B
$GLGSV,2,2,06,80,48,057,41,86,15,241,26*69
$GAGSV,2,1,05,104,85,339,35,110,17,207,33,111,32,233,30,119,29,084,33*65
$GAGSV,2,2,05,121,31,068,35*65
$BDGSV,3,1,09,205,15,125,36,207,09,078,24,209,21,055,32,214,23,114,34*6A
$BDGSV,3,2,09,223,07,193,32,224,46,072,39,225,45,161,40,226,09,036,30*68
$BDGSV,3,3,09,233,43,116,40*66
$GPGSA,A,3,07,20,30,09,11,05,06,16,04,,,,0.8,0.4,0.6*37
$GNGSA,A,3,70,71,73,74,80,86,,,,,,,0.8,0.4,0.6*26
$GAGSA,A,3,104,110,121,,,,,,,,,,0.8,0.4,0.6*1E
$BDGSA,A,3,209,214,224,225,226,,,,,,,,0.8,0.4,0.6*12
$GPRMC,094057.000,A,5151.6913,N,01022.4170,E,26.2,80.9,201123,,,A*6B
$GPGGA,094058.000,5151.6941,N,01022.4287,E,1,24,0.4,586.4,M,47.4,M,,*54
$GPVTG,64.8,T,,M,27.4,N,50.7,K,A*34
$GPGSV,3,1,09,04,09,084,36,05,28,307,32,06,16,207,36,07,72,124,36*7D
$GPGSV,3,2,09,09,41,085,39,11,34,238,38,16,12,031,31,20,60,281,32*75
$GPGSV,3,3,09,30,52,195,39*43
$GLGSV,2,1,06,70,44,094,27,71,71,339,35,73,44,148,39,74,08,178,31*64
$GLGSV,2,2,06,80,48,057,41,86,15,241,26*69
$GAGSV,2,1,05,104,85,339,35,110,17,207,34,111,32,233,30,119,29,084,32*63
$GAGSV,2,2,05,121,31,068,34*64
$BDGSV,3,1,09,205,15,125,36,207,09,078,23,209,20,055,32,214,23,114,34*6C
$BDGSV,3,2,09,223,07,193,31,224,46,072,39,225,45,161,39,226,09,036,30*65
$BDGSV,3,3,09,233,43,116,40*66
$GPGSA,A,3,07,20,30,09,11,05,06,16,04,,,,0.8,0.4,0.6*37
$GNGSA,A,3,70,71,73,74,80,86,,,,,,,0.8,0.4,0.6*26
$GAGSA,A,3,104,110,111,121,,,,,,,,,0.8,0.4,0.6*2F
$BDGSA,A,3,209,214,224,225,226,,,,,,,,0.8,0.4,0.6*12
$GPRMC,094058.000,A,5151.6941,N,01022.4287,E,27.4,64.8,201123,,,A*64
$GPGGA,094059.000,5151.6983,N,01022.4392,E,1,24,0.4,586.0,M,47.4,M,,*5A
$GPVTG,52.2,T,,M,27.1,N,50.3,K,A*3A
$GPGSV,3,1,09,04,09,084,35,05,28,307,32,06,16,207,36,07,72,124,36*7E
$GPGSV,3,2,09,09,42,085,39,11,34,238,38,16,12,030,31,20,60,281,32*77
$GPGSV,3,3,09,30,52,195,39*43
$GLGSV,2,1,06,70,44,094,27,71,71,339,35,73,44,148,39,74,08,178,31*64
$GLGSV,2,2,06,80,48,057,40,86,15,241,26*68
$GAGSV,2,1,05,104,85,339,35,110,17,207,34,111,32,233,30,119,29,084,32*63
$GAGSV,2,2,05,121,31,068,34*64
$BDGSV,3,1,09,205,15,125,36,207,09,078,21,209,20,055,31,214,23,114,34*6D
$BDGSV,3,2,09,223,07,193,29,224,46,072,38,225,45,160,39,226,09,036,30*6C
$BDGSV,3,3,09,233,43,116,40*66
$GPGSA,A,3,07,20,30,09,11,05,06,16,04,,,,0.8,0.4,0.6*37
$GNGSA,A,3,70,71,73,74,80,86,,,,,,,0.8,0.4,0.6*26
$GAGSA,A,3,104,110,111,121,,,,,,,,,0.8,0.4,0.6*2F
$BDGSA,A,3,209,214,224,225,226,,,,,,,,0.8,0.4,0.6*12
$GPRMC,094059.000,A,5151.6983,N,01022.4392,E,27.1,52.2,201123,,,A*64
$GPGGA,094100.000,5151.7039,N,01022.4478,E,1,23,0.4,585.6,M,47.4,M,,*5F
$GPVTG,40.2,T,,M,27.5,N,51.0,K,A*3F
$GPGSV,3,1,09,04,09,084,34,05,28,307,33,06,16,207,36,07,72,124,36*7E
$GPGSV,3,2,09,09,42,085,38,11,34,238,38,16,12,030,31,20,60,280,32*77
$GPGSV,3,3,09,30,52,195,39*43
$GLGSV,2,1,06,70,44,094,27,71,71,339,35,73,44,148,38,74,08,178,31*65
$GLGSV,2,2,06,80,48,057,40,86,15,241,26*68
$GAGSV,2,1,05,104,85,339,35,110,17,207,34,111,32,233,30,119,29,084,31*60
$GAGSV,2,2,05,121,31,068,34*64
$BDGSV,3,1,09,205,15,125,35,207,09,078,20,209,20,055,31,214,23,114,34*6F
$BDGSV,3,2,09,223,07,193,28,224,46,072,38,225,45,160,39,226,08,036,30*6C
$BDGSV,3,3,09,233,43,116,40*66
$GPGSA,A,3,07,20,30,09,11,05,06,16,04,,,,0.8,0.4,0.6*37
$GNGSA,A,3,71,73,74,80,86,,,,,,,,0.8,0.4,0.6*21
$GAGSA,A,3,104,110,111,121,,,,,,,,,0.8,0.4,0.6*2F
$BDGSA,A,3,209,214,224,225,226,,,,,,,,0.8,0.4,0.6*12
$GPRMC,094100.000,A,5151.7039,N,01022.4478,E,27.5,40.2,201123,,,A*64
$GPGGA,094101.000,5151.7103,N,01022.4554,E,1,22,0.6,584.7,M,47.4,M,,*5A
$GPVTG,29.3,T,,M,27.6,N,51.0,K,A*32
$GPGSV,3,1,09,04,09,084,34,05,28,307,33,06,16,207,36,07,72,124,36*7E
$GPGSV,3,2,09,09,42,085,38,11,34,238,37,16,12,030,30,20,60,280,32*79
$GPGSV,3,3,09,30,53,195,39*42
$GLGSV,2,1,06,70,44,094,26,71,71,339,35,73,44,148,37,74,08,178,31*6B
$GLGSV,2,2,06,80,48,057,39,86,15,241,26*66
$GAGSV,2,1,05,104,85,339,35,110,17,207,34,111,32,233,30,119,29,084,32*63
$GAGSV,2,2,05,121,31,068,33*63
$BDGSV,3,1,09,205,15,125,35,207,09,078,18,209,20,055,31,214,23,114,34*64
$BDGSV,3,2,09,223,07,193,26,224,46,072,38,225,45,160,39,226,08,036,29*6A
$BDGSV,3,3,09,233,43,116,40*66
$GPGSA,A,3,07,20,30,09,11,05,06,16,04,,,,1.0,0.6,0.8*32
$GNGSA,A,3,70,71,73,80,,,,,,,,,1.0,0.6,0.8*2E
$GAGSA,A,3,104,110,111,121,,,,,,,,,1.0,0.6,0.8*2A
$BDGSA,A,3,209,214,224,225,226,,,,,,,,1.0,0.6,0.8*17
$GPRMC,094101.000,A,5151.7103,N,01022.4554,E,27.6,29.3,201123,,,A*6F
$GPGGA,094102.000,5151.7170,N,01022.4609,E,1,22,0.6,584.9,M,47.4,M,,*58
$GPVTG,27.0,T,,M,27.6,N,51.1,K,A*3E
$GPGSV,3,1,09,04,09,084,34,05,28,307,33,06,16,207,35,07,72,124,36*7D
$GPGSV,3,2,09,09,42,085,38,11,34,238,37,16,12,030,30,20,60,280,32*79
$GPGSV,3,3,09,30,53,195,39*42
$GLGSV,2,1,06,70,44,094,26,71,71,339,35,73,44,148,37,74,08,178,30*6A
$GLGSV,2,2,06,80,48,057,38,86,15,241,26*67
$GAGSV,2,1,05,104,85,339,35,110,17,207,34,111,32,233,30,119,29,084,37*66
$GAGSV,2,2,05,121,31,068,33*63
$BDGSV,3,1,09,205,15,125,35,207,09,078,17,209,20,055,30,214,23,114,34*6A
$BDGSV,3,2,09,223,07,193,25,224,46,072,37,225,45,160,39,226,08,036,29*66
$BDGSV,3,3,09,233,43,116,40*66
$GPGSA,A,3,07,20,30,09,11,05,06,04,,,,,1.0,0.6,0.8*35
$GNGSA,A,3,70,71,73,74,80,,,,,,,,1.0,0.6,0.8*2D
$GAGSA,A,3,104,110,111,121,,,,,,,,,1.0,0.6,0.8*2A
$BDGSA,A,3,209,214,224,225,226,,,,,,,,1.0,0.6,0.8*17
$GPRMC,094102.000,A,5151.7170,N,01022.4609,E,27.6,27.0,201123,,,A*6E
$GPGGA,094103.000,5151.7238,N,01022.4656,E,1,23,0.6,584.6,M,47.4,M,,*52
$GPVTG,20.9,T,,M,27.5,N,50.9,K,A*3A
$GPGSV,3,1,09,04,09,084,33,05,28,307,33,06,16,207,34,07,72,124,36*7B
$GPGSV,3,2,09,09,42,085,38,11,34,238,36,16,12,030,30,20,60,280,32*78
$GPGSV,3,3,09,30,53,195,39*42
$GLGSV,2,1,06,70,44,094,26,71,71,339,35,73,44,148,37,74,08,178,29*62
$GLGSV,2,2,06,80,48,057,38,86,15,241,26*67
$GAGSV,2,1,05,104,85,339,35,110,17,207,33,111,32,233,30,119,29,084,37*61
$GAGSV,2,2,05,121,31,068,36*66
$BDGSV,3,1,09,205,15,125,35,207,09,078,15,209,20,055,30,214,23,114,34*68
$BDGSV,3,2,09,223,07,193,23,224,46,072,37,225,45,160,39,226,08,036,29*60
$BDGSV,3,3,09,233,43,116,40*66
$GPGSA,A,3,07,20,30,09,11,05,06,04,,,,,1.0,0.6,0.8*35
$GNGSA,A,3,70,71,73,74,80,86,,,,,,,1.0,0.6,0.8*23
$GAGSA,A,3,104,110,111,121,,,,,,,,,1.0,0.6,0.8*2A
$BDGSA,A,3,209,214,224,225,226,,,,,,,,1.0,0.6,0.8*17
$GPRMC,094103.000,A,5151.7238,N,01022.4656,E,27.5,20.9,201123,,,A*67
$GPGGA,094104.000,5151.7310,N,01022.4692,E,1,23,0.4,584.0,M,47.4,M,,*52
$GPVTG,16.4,T,,M,27.5,N,51.0,K,A*3A
$GPGSV,3,1,09,04,09,084,33,05,28,307,33,06,16,207,34,07,72,124,36*7B
$GPGSV,3,2,09,09,42,085,37,11,34,238,36,16,12,030,30,20,60,280,32*77
$GPGSV,3,3,09,30,53,195,39*42
$GLGSV,2,1,06,70,44,094,25,71,71,339,35,73,44,148,37,74,08,178,29*61
$GLGSV,2,2,06,80,48,057,44,86,15,241,25*6F
$GAGSV,2,1,05,104,85,339,35,110,17,207,33,111,32,233,30,119,29,084,37*61
$GAGSV,2,2,05,121,31,068,40*67
$BDGSV,3,1,09,205,15,125,34,207,09,078,14,209,20,055,33,214,23,114,34*6B
$BDGSV,3,2,09,223,07,193,22,224,46,072,37,225,45,160,39,226,08,036,29*61
$BDGSV,3,3,09,233,43,116,40*66
$GPGSA,A,3,07,20,30,09,11,05,06,16,04,,,,0.8,0.4,0.6*37
$GNGSA,A,3,70,71,73,74,80,86,,,,,,,0.8,0.4,0.6*26
$GAGSA,A,3,104,110,121,,,,,,,,,,0.8,0.4,0.6*1E
$BDGSA,A,3,209,214,224,225,226,,,,,,,,0.8,0.4,0.6*12
$GPRMC,094104.000,A,5151.7310,N,01022.4692,E,27.5,16.4,201123,,,A*6B
$GPGGA,094105.000,5151.7382,N,01022.4724,E,1,22,0.6,584.0,M,47.4,M,,*57
$GPVTG,15.5,T,,M,28.1,N,52.1,K,A*31
$GPGSV,3,1,09,04,09,084,33,05,28,307,33,06,16,207,33,07,72,124,36*7C
$GPGSV,3,2,09,09,42,085,37,11,34,238,36,16,12,030,29,20,60,280,32*7F
$GPGSV,3,3,09,30,53,195,39*42
$GLGSV,2,1,07,70,44,094,25,71,71,339,33,73,44,148,36,74,08,178,29*67
$GLGSV,2,2,07,80,48,057,43,86,15,241,25,87,29,296,23*51
$GAGSV,2,1,05,104,85,339,35,110,17,207,32,111,32,233,30,119,29,084,36*61
$GAGSV,2,2,05,121,31,068,40*67
$BDGSV,3,1,09,205,15,125,34,207,09,078,13,209,20,055,36,214,23,114,34*69
$BDGSV,3,2,09,223,07,193,20,224,46,072,37,225,45,160,39,226,08,036,28*62
$BDGSV,3,3,09,233,43,116,39*68
$GPGSA,A,3,07,20,30,09,11,05,06,16,04,,,,1.0,0.6,0.8*32
$GNGSA,A,3,70,73,74,80,,,,,,,,,1.0,0.6,0.8*2B
$GAGSA,A,3,104,110,111,121,,,,,,,,,1.0,0.6,0.8*2A
$BDGSA,A,3,209,214,224,225,226,,,,,,,,1.0,0.6,0.8*17
$GPRMC,094105.000,A,5151.7382,N,01022.4724,E,28.1,15.5,201123,,,A*64
$GPGGA,094106.000,5151.7455,N,01022.4757,E,1,20,0.6,583.6,M,47.4,M,,*5E
$GPVTG,16.2,T,,M,28.5,N,52.7,K,A*37
$GPGSV,3,1,09,04,09,084,32,05,28,307,33,06,16,207,33,07,72,124,36*7D
$GPGSV,3,2,09,09,42,085,37,11,34,238,35,16,12,030,29,20,60,280,32*7C
$GPGSV,3,3,09,30,53,195,39*42
$GLGSV,2,1,07,70,44,094,25,71,71,339,32,73,44,148,36,74,08,178,28*67
$GLGSV,2,2,07,80,48,057,43,86,15,241,25,87,29,296,28*5A
$GAGSV,2,1,05,104,85,339,34,110,17,207,32,111,32,233,30,119,29,084,36*60
$GAGSV,2,2,05,121,31,068,39*69
$BDGSV,3,1,09,205,15,125,34,207,09,078,12,209,20,055,36,214,23,114,34*68
$BDGSV,3,2,09,223,07,193,19,224,46,072,37,225,45,160,39,226,08,036,28*68
$BDGSV,3,3,09,233,43,116,39*68
$GPGSA,A,3,07,20,30,09,11,05,06,16,04,,,,1.0,0.6,0.8*32
$GNGSA,A,3,70,73,80,,,,,,,,,,1.0,0.6,0.8*28
$GAGSA,A,3,104,110,121,,,,,,,,,,1.0,0.6,0.8*1B
$BDGSA,A,3,209,214,224,225,226,,,,,,,,1.0,0.6,0.8*17
$GPRMC,094106.000,A,5151.7455,N,01022.4757,E,28.5,16.2,201123,,,A*6E
$GPGGA,094107.000,5151.7531,N,01022.4793,E,1,23,0.4,583.0,M,47.4,M,,*53
$GPVTG,17.5,T,,M,28.8,N,53.4,K,A*3E
$GPGSV,3,1,09,04,09,084,32,05,28,307,33,06,16,207,33,07,72,124,36*7D
$GPGSV,3,2,09,09,42,085,37,11,34,238,35,16,12,030,29,20,60,280,32*7C
$GPGSV,3,3,09,30,53,195,39*42
$GLGSV,2,1,07,70,44,094,25,71,71,339,30,73,44,148,36,74,08,178,28*65
$GLGSV,2,2,07,80,48,057,43,86,15,241,25,87,29,296,29*5B
$GAGSV,2,1,05,104,85,339,34,110,17,207,32,111,32,233,29,119,29,084,36*68
$GAGSV,2,2,05,121,31,068,39*69
$BDGSV,2,1,08,205,15,125,34,209,20,055,36,214,23,114,34,223,07,193,17*61
$BDGSV,2,2,08,224,46,072,37,225,45,160,39,226,08,036,28,233,43,116,38*67
$GPGSA,A,3,07,20,30,09,11,05,06,16,04,,,,1.0,0.4,0.8*30
$GNGSA,A,3,70,73,74,80,87,,,,,,,,1.0,0.4,0.8*26
$GAGSA,A,3,104,110,111,121,,,,,,,,,1.0,0.4,0.8*28
$BDGSA,A,3,209,214,224,225,226,,,,,,,,1.0,0.4,0.8*15
$GPRMC,094107.000,A,5151.7531,N,01022.4793,E,28.8,17.5,201123,,,A*6F
$GPGGA,094108.000,5151.7605,N,01022.4838,E,1,24,0.4,582.1,M,47.4,M,,*51
$GPVTG,23.7,T,,M,28.9,N,53.5,K,A*3B
$GPGSV,3,1,09,04,09,084,32,05,28,307,32,06,16,207,32,07,72,124,35*7E
$GPGSV,3,2,09,09,42,085,37,11,34,238,35,16,12,030,29,20,60,280,32*7C
$GPGSV,3,3,09,30,53,195,38*43
$GLGSV,2,1,07,70,44,094,25,71,71,339,29,73,44,148,36,74,08,178,27*62
$GLGSV,2,2,07,80,48,057,43,86,15,241,25,87,29,296,29*5B
$GAGSV,2,1,05,104,85,339,33,110,17,207,31,111,32,233,29,119,29,084,36*6C
$GAGSV,2,2,05,121,31,068,39*69
$BDGSV,2,1,08,205,15,125,34,209,20,055,36,214,23,114,34,223,07,193,16*60
$BDGSV,2,2,08,224,46,072,38,225,45,160,39,226,08,036,28,233,43,116,38*68
$GPGSA,A,3,07,20,30,09,11,05,06,16,04,,,,0.8,0.4,0.8*39
$GNGSA,A,3,70,73,74,80,86,87,,,,,,,0.8,0.4,0.8*21
$GAGSA,A,3,104,110,111,121,,,,,,,,,0.8,0.4,0.8*21
$BDGSA,A,3,209,214,224,225,226,,,,,,,,0.8,0.4,0.8*1C
$GPRMC,094108.000,A,5151.7605,N,01022.4838,E,28.9,23.7,201123,,,A*6E
$GPGGA,094109.000,5151.7674,N,01022.4899,E,1,23,0.4,581.1,M,47.4,M,,*59
$GPVTG,29.9,T,,M,29.1,N,53.9,K,A*3A
$GPGSV,3,1,09,04,09,084,34,05,28,307,32,06,16,207,32,07,72,124,35*78
$GPGSV,3,2,09,09,42,085,42,11,34,238,34,16,12,030,29,20,60,280,32*7F
$GPGSV,3,3,09,30,53,195,38*43
$GLGSV,2,1,07,70,44,094,24,71,71,339,27,73,44,148,36,74,08,178,27*6D
$GLGSV,2,2,07,80,48,057,43,86,15,241,24,87,29,296,30*52
$GAGSV,2,1,05,104,85,339,33,110,17,207,31,111,32,233,29,119,29,084,36*6C
$GAGSV,2,2,05,121,31,068,39*69
$BDGSV,2,1,08,205,15,125,34,209,20,055,36,214,23,114,34,223,07,193,14*62
$BDGSV,2,2,08,224,46,072,38,225,45,160,39,226,08,036,28,233,43,116,37*67
$GPGSA,A,3,07,20,30,09,11,05,06,16,04,,,,1.0,0.4,0.8*30
$GNGSA,A,3,70,73,80,86,87,,,,,,,,1.0,0.4,0.8*2B
$GAGSA,A,3,104,110,111,121,,,,,,,,,1.0,0.4,0.8*28
$BDGSA,A,3,209,214,224,225,226,,,,,,,,1.0,0.4,0.8*15
$GPRMC,094109.000,A,5151.7674,N,01022.4899,E,29.1,29.9,201123,,,A*6F
$GPGGA,094110.000,5151.7743,N,01022.4963,E,1,22,0.4,579.3,M,47.4,M,,*54
$GPVTG,30.8,T,,M,29.1,N,54.0,K,A*3D
$GPGSV,3,1,09,04,09,084,36,05,28,307,31,06,16,207,32,07,72,124,35*79
$GPGSV,3,2,09,09,42,085,43,11,34,238,34,16,12,030,29,20,60,280,32*7E
$GPGSV,3,3,09,30,53,195,38*43
$GLGSV,2,1,07,70,44,094,24,71,71,339,26,73,44,148,36,74,08,178,27*6C
$GLGSV,2,2,07,80,48,057,42,86,15,241,24,87,29,296,30*53
$GAGSV,2,1,05,104,85,339,33,110,17,207,31,111,32,233,29,119,29,084,36*6C
$GAGSV,2,2,05,121,31,068,38*68
$BDGSV,2,1,08,205,15,125,34,209,20,055,35,214,23,114,33,223,07,193,13*61
$BDGSV,2,2,08,224,46,072,39,225,45,160,39,226,08,036,28,233,43,116,37*66
$GPGSA,A,3,07,20,30,09,11,05,06,04,,,,,1.0,0.4,0.8*37
$GNGSA,A,3,70,73,74,80,86,87,,,,,,,1.0,0.4,0.8*28
$GAGSA,A,3,104,110,121,,,,,,,,,,1.0,0.4,0.8*19
$BDGSA,A,3,209,214,224,225,226,,,,,,,,1.0,0.4,0.8*15
$GPRMC,094110.000,A,5151.7743,N,01022.4963,E,29.1,30.8,201123,,,A*6F
$GPGGA,094111.000,5151.7814,N,01022.5034,E,1,22,0.4,577.8,M,47.4,M,,*57
$GPVTG,29.7,T,,M,29.6,N,54.8,K,A*35
$GPGSV,3,1,09,04,09,084,36,05,28,307,31,06,16,207,32,07,72,124,35*79
$GPGSV,3,2,09,09,42,085,43,11,34,238,34,16,12,030,28,20,60,280,32*7F
$GPGSV,3,3,09,30,53,195,39*42
$GLGSV,2,1,07,70,44,094,24,71,71,339,24,73,44,148,36,74,08,178,27*6E
$GLGSV,2,2,07,80,48,057,42,86,15,241,24,87,29,296,30*53
$GAGSV,2,1,05,104,85,339,32,110,17,207,31,111,32,233,29,119,29,084,35*6E
$GAGSV,2,2,05,121,31,068,38*68
$BDGSV,2,1,08,205,15,125,33,209,20,055,34,214,23,114,33,223,07,193,13*67
$BDGSV,2,2,08,224,46,072,39,225,45,160,40,226,08,036,28,233,43,116,37*68
$GPGSA,A,3,07,20,30,09,11,05,06,04,,,,,1.0,0.4,0.8*37
$GNGSA,A,3,70,73,74,80,87,,,,,,,,1.0,0.4,0.8*26
$GAGSA,A,3,104,110,111,121,,,,,,,,,1.0,0.4,0.8*28
$BDGSA,A,3,209,214,224,225,226,,,,,,,,1.0,0.4,0.8*15
$GPRMC,094111.000,A,5151.7814,N,01022.5034,E,29.6,29.7,201123,,,A*69
$GPGGA,094112.000,5151.7887,N,01022.5099,E,1,22,0.4,576.8,M,47.4,M,,*58
$GPVTG,27.3,T,,M,29.4,N,54.5,K,A*30
$GPGSV,3,1,09,04,09,084,36,05,28,307,31,06,16,207,31,07,72,124,35*7A
$GPGSV,3,2,09,09,42,085,43,11,34,238,34,16,12,030,28,20,60,280,32*7F
$GPGSV,3,3,09,30,53,195,40*4C
$GLGSV,2,1,07,70,44,094,24,71,71,339,23,73,44,148,36,74,08,178,27*69
$GLGSV,2,2,07,80,48,057,42,86,15,241,24,87,29,296,30*53
$GAGSV,2,1,05,104,85,339,32,110,17,207,31,111,32,233,29,119,29,084,35*6E
$GAGSV,2,2,05,121,31,068,37*67
$BDGSV,2,1,08,205,15,125,33,209,20,055,34,214,23,114,33,223,07,193,12*66
$BDGSV,2,2,08,224,46,072,39,225,45,160,41,226,08,036,28,233,43,116,36*68
$GPGSA,A,3,07,20,30,09,11,05,06,16,04,,,,1.0,0.4,0.8*30
$GNGSA,A,3,70,73,74,80,87,,,,,,,,1.0,0.4,0.8*26
$GAGSA,A,3,104,110,121,,,,,,,,,,1.0,0.4,0.8*19
$BDGSA,A,3,209,214,224,225,226,,,,,,,,1.0,0.4,0.8*15
$GPRMC,094112.000,A,5151.7887,N,01022.5099,E,29.4,27.3,201123,,,A*6F
$GPGGA,094113.000,5151.7960,N,01022.5163,E,1,23,0.4,575.3,M,47.4,M,,*5C
$GPVTG,25.9,T,,M,29.6,N,54.8,K,A*37
$GPGSV,3,1,09,04,09,084,36,05,28,307,30,06,16,207,31,07,72,124,35*7B
$GPGSV,3,2,09,09,42,085,42,11,34,238,34,16,12,030,27,20,60,280,32*71
$GPGSV,3,3,09,30,53,195,40*4C
$GLGSV,2,1,07,70,44,094,24,71,71,339,21,73,44,148,36,74,08,178,27*6B
$GLGSV,2,2,07,80,48,057,42,86,15,241,23,87,29,296,30*54
$GAGSV,2,1,05,104,85,339,32,110,17,207,31,111,32,233,29,119,29,084,35*6E
$GAGSV,2,2,05,121,31,068,36*66
$BDGSV,2,1,07,205,15,125,33,209,20,055,34,214,23,114,33,224,46,072,40*62
$BDGSV,2,2,07,225,45,160,42,226,08,036,28,233,43,116,36*6D
$GPGSA,A,3,07,20,30,09,11,05,06,16,04,,,,1.0,0.4,0.8*30
$GNGSA,A,3,70,73,74,80,87,,,,,,,,1.0,0.4,0.8*26
$GAGSA,A,3,104,110,111,121,,,,,,,,,1.0,0.4,0.8*28
$BDGSA,A,3,209,214,224,225,226,,,,,,,,1.0,0.4,0.8*15
$GPRMC,094113.000,A,5151.7960,N,01022.5163,E,29.6,25.9,201123,,,A*68
$GPGGA,094114.000,5151.8033,N,01022.5225,E,1,22,0.4,574.1,M,47.4,M,,*58
$GPVTG,29.6,T,,M,30.1,N,55.8,K,A*3A
$GPGSV,3,1,09,04,09,084,36,05,28,307,30,06,16,207,31,07,72,124,35*7B
$GPGSV,3,2,09,09,42,085,42,11,34,238,33,16,12,030,27,20,60,280,32*76
$GPGSV,3,3,09,30,53,195,40*4C
$GLGSV,2,1,07,70,44,094,24,71,71,339,20,73,44,148,36,74,08,178,27*6A
$GLGSV,2,2,07,80,48,057,41,86,15,241,23,87,29,296,30*57
$GAGSV,2,1,05,104,85,339,32,110,17,207,30,111,32,233,29,119,29,084,35*6F
$GAGSV,2,2,05,121,31,068,36*66
$BDGSV,2,1,07,205,15,125,33,209,20,055,33,214,23,114,32,224,46,072,40*64
$BDGSV,2,2,07,225,45,160,42,226,08,036,28,233,43,116,36*6D
$GPGSA,A,3,07,20,30,09,11,05,06,16,04,,,,1.0,0.4,0.8*30
$GNGSA,A,3,70,73,74,80,87,,,,,,,,1.0,0.4,0.8*26
$GAGSA,A,3,104,110,111,121,,,,,,,,,1.0,0.4,0.8*28
$BDGSA,A,3,209,214,224,225,,,,,,,,,1.0,0.4,0.8*23
$GPRMC,094114.000,A,5151.8033,N,01022.5225,E,30.1,29.6,201123,,,A*62
$GPGGA,094115.000,5151.8102,N,01022.5298,E,1,22,0.4,573.4,M,47.4,M,,*5E
$GPVTG,35.1,T,,M,30.4,N,56.4,K,A*3A
$GPGSV,3,1,09,04,09,084,36,05,28,307,30,06,16,207,31,07,72,124,35*7B
$GPGSV,3,2,09,09,42,085,42,11,34,238,33,16,12,030,26,20,60,280,32*77
$GPGSV,3,3,09,30,53,195,40*4C
$GLGSV,2,1,07,70,44,094,24,71,71,339,18,73,44,148,36,74,08,178,27*61
$GLGSV,2,2,07,80,48,057,41,86,15,241,23,87,29,296,30*57
$GAGSV,2,1,05,104,85,339,32,110,17,207,30,111,32,233,28,119,29,084,35*6E
$GAGSV,2,2,05,121,31,068,35*65
$BDGSV,2,1,07,205,15,125,33,209,20,055,33,214,23,114,32,224,46,072,41*65
$BDGSV,2,2,07,225,45,160,42,226,08,036,27,233,43,116,36*62
$GPGSA,A,3,07,20,30,09,11,05,06,16,04,,,,1.0,0.4,0.8*30
$GNGSA,A,3,70,73,74,80,87,,,,,,,,1.0,0.4,0.8*26
$GAGSA,A,3,104,110,111,121,,,,,,,,,1.0,0.4,0.8*28
$BDGSA,A,3,209,214,224,225,,,,,,,,,1.0,0.4,0.8*23
$GPRMC,094115.000,A,5151.8102,N,01022.5298,E,30.4,35.1,201123,,,A*69
$GPGGA,094116.000,5151.8167,N,01022.5386,E,1,23,0.4,572.5,M,47.4,M,,*51
$GPVTG,39.7,T,,M,30.6,N,56.6,K,A*30
$GPGSV,3,1,09,04,09,084,36,05,28,307,30,06,16,207,31,07,72,124,35*7B
$GPGSV,3,2,09,09,42,085,42,11,34,238,33,16,12,030,26,20,60,280,32*77
$GPGSV,3,3,09,30,53,195,40*4C
$GLGSV,2,1,07,70,44,095,24,71,71,340,33,73,44,148,36,74,08,178,27*67
$GLGSV,2,2,07,80,48,057,40,86,15,241,21,87,29,296,30*54
$GAGSV,2,1,05,104,85,339,32,110,17,207,30,111,32,233,28,119,29,084,35*6E
$GAGSV,2,2,05,121,31,068,35*65
$BDGSV,2,1,07,205,15,125,33,209,20,055,33,214,23,114,32,224,46,071,41*66
$BDGSV,2,2,07,225,45,160,42,226,08,036,26,233,43,116,37*62
$GPGSA,A,3,07,20,30,09,11,05,06,16,04,,,,1.0,0.4,0.8*30
$GNGSA,A,3,70,73,74,80,87,,,,,,,,1.0,0.4,0.8*26
$GAGSA,A,3,104,110,111,121,,,,,,,,,1.0,0.4,0.8*28
$BDGSA,A,3,205,209,214,224,225,,,,,,,,1.0,0.4,0.8*14
$GPRMC,094116.000,A,5151.8167,N,01022.5386,E,30.6,39.7,201123,,,A*6F
$GPGGA,094117.000,5151.8229,N,01022.5478,E,1,23,0.4,572.0,M,47.4,M,,*5A
$GPVTG,41.3,T,,M,30.8,N,57.0,K,A*32
$GPGSV,3,1,09,04,09,084,35,05,28,307,30,06,16,207,31,07,72,124,34*79
$GPGSV,3,2,09,09,42,085,42,11,34,238,33,16,12,030,26,20,60,280,32*77
$GPGSV,3,3,09,30,53,195,40*4C
$GLGSV,2,1,07,70,44,095,26,71,71,340,33,73,44,148,36,74,08,178,27*65
$GLGSV,2,2,07,80,48,057,40,86,15,241,20,87,29,296,30*55
$GAGSV,2,1,05,104,85,339,32,110,17,207,30,111,32,233,28,119,29,084,35*6E
$GAGSV,2,2,05,121,31,068,34*64
$BDGSV,2,1,08,205,15,125,33,206,04,055,22,209,20,055,33,214,23,114,32*6C
$BDGSV,2,2,08,224,46,071,41,225,45,160,41,226,08,036,24,233,43,116,37*69
$GPGSA,A,3,07,20,30,09,11,05,06,16,04,,,,1.0,0.4,0.8*30
$GNGSA,A,3,70,71,73,74,80,87,,,,,,,1.0,0.4,0.8*20
$GAGSA,A,3,104,110,121,,,,,,,,,,1.0,0.4,0.8*19
$BDGSA,A,3,205,209,214,224,225,,,,,,,,1.0,0.4,0.8*14
$GPRMC,094117.000,A,5151.8229,N,01022.5478,E,30.8,41.3,201123,,,A*64
$GPGGA,094118.000,5151.8285,N,01022.5577,E,1,24,0.4,571.5,M,47.4,M,,*5C
$GPVTG,49.1,T,,M,30.2,N,55.9,K,A*39
$GPGSV,3,1,09,04,09,084,34,05,28,307,29,06,16,207,31,07,72,124,34*70
$GPGSV,3,2,09,09,42,085,42,11,34,238,33,16,12,030,25,20,60,280,32*74
$GPGSV,3,3,09,30,53,195,40*4C
$GLGSV,2,1,07,70,44,095,31,71,71,340,34,73,44,148,36,74,08,178,27*64
$GLGSV,2,2,07,80,48,057,39,86,15,241,18,87,29,296,30*50
$GAGSV,2,1,05,104,85,339,32,110,17,207,30,111,32,233,28,119,29,084,34*6F
$GAGSV,2,2,05,121,31,068,34*64
$BDGSV,2,1,08,205,15,125,33,206,04,055,21,209,20,055,33,214,23,114,32*6F
$BDGSV,2,2,08,224,46,071,41,225,45,160,41,226,08,036,23,233,43,116,37*6E
$GPGSA,A,3,07,20,30,09,11,05,06,16,04,,,,0.8,0.4,0.8*39
$GNGSA,A,3,70,71,73,74,80,87,,,,,,,0.8,0.4,0.8*29
$GAGSA,A,3,104,110,111,121,,,,,,,,,0.8,0.4,0.8*21
$BDGSA,A,3,205,209,214,224,225,,,,,,,,0.8,0.4,0.8*1D
$GPRMC,094118.000,A,5151.8285,N,01022.5577,E,30.2,49.1,201123,,,A*63
$GPGGA,094119.000,5151.8328,N,01022.5685,E,1,22,0.6,570.8,M,47.4,M,,*5D
$GPVTG,57.5,T,,M,30.1,N,55.8,K,A*30
$GPGSV,3,1,09,04,09,084,33,05,28,307,29,06,16,207,31,07,72,124,34*77
$GPGSV,3,2,09,09,42,085,41,11,34,238,33,16,12,030,25,20,60,280,32*77
$GPGSV,3,3,09,30,53,195,40*4C
$GLGSV,2,1,07,70,44,095,31,71,71,340,34,73,44,148,36,74,08,178,27*64
$GLGSV,2,2,07,80,48,057,39,86,15,241,17,87,29,296,30*5F
$GAGSV,2,1,05,104,85,339,32,110,17,207,30,111,32,233,28,119,29,084,34*6F
$GAGSV,2,2,05,121,31,068,33*63
$BDGSV,2,1,08,205,15,125,32,206,04,055,21,209,20,055,32,214,23,114,32*6F
$BDGSV,2,2,08,224,46,071,41,225,45,160,41,226,08,036,21,233,43,116,38*63
$GPGSA,A,3,07,20,30,09,11,06,16,04,,,,,1.0,0.6,0.8*37
$GNGSA,A,3,70,71,73,74,80,,,,,,,,1.0,0.6,0.8*2D
$GAGSA,A,3,104,110,111,121,,,,,,,,,1.0,0.6,0.8*2A
$BDGSA,A,3,205,209,214,224,225,,,,,,,,1.0,0.6,0.8*16
$GPRMC,094119.000,A,5151.8328,N,01022.5685,E,30.1,57.5,201123,,,A*62
$GPGGA,094120.000,5151.8367,N,01022.5807,E,1,22,0.6,570.5,M,47.4,M,,*55
$GPVTG,67.2,T,,M,30.6,N,56.7,K,A*3F
$GPGSV,3,1,09,04,09,084,33,05,28,307,29,06,16,207,31,07,72,124,34*77
$GPGSV,3,2,09,09,42,085,40,11,34,238,33,16,12,030,25,20,60,280,32*76
$GPGSV,3,3,09,30,53,195,39*42
$GLGSV,2,1,07,70,44,095,31,71,71,340,34,73,44,148,35,74,08,178,27*67
$GLGSV,2,2,07,80,48,057,38,86,15,241,15,87,29,296,30*5C
$GAGSV,2,1,05,104,85,339,31,110,17,207,30,111,32,233,28,119,29,084,33*6B
$GAGSV,2,2,05,121,31,068,33*63
$BDGSV,2,1,08,205,15,125,31,206,04,055,20,209,20,055,31,214,23,114,32*6E
$BDGSV,2,2,08,224,46,071,40,225,45,160,41,226,08,036,20,233,43,116,39*62
$GPGSA,A,3,07,20,30,09,11,05,06,16,04,,,,1.0,0.6,0.8*32
$GNGSA,A,3,70,71,73,74,80,,,,,,,,1.0,0.6,0.8*2D
$GAGSA,A,3,104,110,111,121,,,,,,,,,1.0,0.6,0.8*2A
$BDGSA,A,3,209,214,224,225,,,,,,,,,1.0,0.6,0.8*21
$GPRMC,094120.000,A,5151.8367,N,01022.5807,E,30.6,67.2,201123,,,A*64
$GPGGA,094121.000,5151.8393,N,01022.5939,E,1,21,0.6,569.7,M,47.4,M,,*5A
$GPVTG,73.7,T,,M,30.9,N,57.2,K,A*34
$GPGSV,3,1,09,04,09,084,32,05,28,307,29,06,16,207,31,07,72,124,34*76
$GPGSV,3,2,09,09,42,085,39,11,34,238,33,16,12,030,24,20,60,280,32*79
$GPGSV,3,3,09,30,53,195,39*42
$GLGSV,2,1,07,70,44,095,29,71,71,340,34,73,44,148,35,74,08,178,27*6E
$GLGSV,2,2,07,80,48,057,38,86,15,241,14,87,29,296,29*55
$GAGSV,2,1,05,104,85,339,31,110,17,207,30,111,32,233,31,119,29,084,32*62
$GAGSV,2,2,05,121,31,068,33*63
$BDGSV,3,1,09,205,15,125,29,206,04,055,18,207,09,078,21,209,20,055,30*6E
$BDGSV,3,2,09,214,23,114,32,224,46,071,40,225,45,160,41,226,08,036,18*63
$BDGSV,3,3,09,233,43,116,39*68
$GPGSA,A,3,07,20,30,09,11,06,16,04,,,,,1.0,0.6,0.8*37
$GNGSA,A,3,71,73,74,80,,,,,,,,,1.0,0.6,0.8*2A
$GAGSA,A,3,104,110,111,119,121,,,,,,,,1.0,0.6,0.8*13
$BDGSA,A,3,209,214,224,225,,,,,,,,,1.0,0.6,0.8*21
$GPRMC,094121.000,A,5151.8393,N,01022.5939,E,30.9,73.7,201123,,,A*6D
$GPGGA,094122.000,5151.8415,N,01022.6076,E,1,21,0.6,569.2,M,47.4,M,,*54
$GPVTG,75.5,T,,M,30.8,N,57.0,K,A*33
$GPGSV,3,1,09,04,09,084,31,05,28,307,29,06,16,207,31,07,72,124,34*75
$GPGSV,3,2,09,09,42,085,38,11,34,238,33,16,12,030,24,20,60,280,32*78
$GPGSV,3,3,09,30,53,195,39*42
$GLGSV,2,1,07,70,44,095,28,71,71,340,34,73,44,148,35,74,08,178,27*6F
$GLGSV,2,2,07,80,48,057,39,86,15,241,13,87,29,296,28*52
$GAGSV,2,1,05,104,85,339,31,110,17,207,30,111,32,233,36,119,29,084,32*65
$GAGSV,2,2,05,121,31,068,32*62
$BDGSV,3,1,09,205,15,125,28,206,04,055,17,207,09,078,23,209,20,055,30*62
$BDGSV,3,2,09,214,23,114,32,224,46,071,39,225,45,160,40,226,08,036,17*63
$BDGSV,3,3,09,233,43,116,39*68
$GPGSA,A,3,07,20,30,09,11,05,06,16,04,,,,1.0,0.6,0.8*32
$GNGSA,A,3,71,73,80,,,,,,,,,,1.0,0.6,0.8*29
$GAGSA,A,3,104,110,111,119,121,,,,,,,,1.0,0.6,0.8*13
$BDGSA,A,3,209,214,224,225,,,,,,,,,1.0,0.6,0.8*21
$GPRMC,094122.000,A,5151.8415,N,01022.6076,E,30.8,75.5,201123,,,A*63
$GPGGA,094123.000,5151.8435,N,01022.6216,E,1,21,0.6,568.8,M,47.4,M,,*58
$GPVTG,76.7,T,,M,30.2,N,55.9,K,A*33
$GPGSV,3,1,09,04,09,084,31,05,28,307,28,06,16,207,31,07,72,124,34*74
$GPGSV,3,2,09,09,42,085,38,11,34,238,37,16,12,030,24,20,60,280,32*7C
$GPGSV,3,3,09,30,53,195,39*42
$GLGSV,2,1,07,70,44,095,26,71,71,340,34,73,44,148,36,74,08,178,27*62
$GLGSV,2,2,07,80,48,057,43,86,15,241,26,87,29,296,27*56
$GAGSV,2,1,05,104,85,339,31,110,17,207,30,111,32,233,36,119,29,084,31*66
$GAGSV,2,2,05,121,31,068,32*62
$BDGSV,3,1,09,205,15,125,26,206,04,055,15,207,09,078,25,209,20,055,29*60
$BDGSV,3,2,09,214,23,114,32,224,46,071,39,225,45,160,40,226,08,036,15*61
$BDGSV,3,3,09,233,43,116,39*68
$GPGSA,A,3,07,20,30,09,11,05,06,16,04,,,,1.0,0.6,0.8*32
$GNGSA,A,3,71,73,80,,,,,,,,,,1.0,0.6,0.8*29
$GAGSA,A,3,104,110,111,119,121,,,,,,,,1.0,0.6,0.8*13
$BDGSA,A,3,209,214,224,225,,,,,,,,,1.0,0.6,0.8*21
$GPRMC,094123.000,A,5151.8435,N,01022.6216,E,30.2,76.7,201123,,,A*6F
$GPGGA,094124.000,5151.8454,N,01022.6368,E,1,24,0.4,569.0,M,47.4,M,,*5E
$GPVTG,77.6,T,,M,30.3,N,56.2,K,A*3A
$GPGSV,3,1,09,04,09,084,30,05,28,307,28,06,16,207,31,07,72,124,34*75
$GPGSV,3,2,09,09,42,085,37,11,34,238,39,16,12,030,23,20,60,280,32*7A
$GPGSV,3,3,09,30,53,195,38*43
$GLGSV,2,1,07,70,44,095,25,71,71,340,33,73,44,148,36,74,08,178,27*66
$GLGSV,2,2,07,80,48,057,43,86,15,241,26,87,29,296,27*56
$GAGSV,2,1,05,104,85,339,31,110,17,207,30,111,32,233,36,119,29,084,30*67
$GAGSV,2,2,05,121,31,068,32*62
$BDGSV,3,1,09,205,15,125,25,206,04,055,14,207,09,078,25,209,20,055,29*62
$BDGSV,3,2,09,214,23,114,32,224,46,071,38,225,45,160,39,226,08,036,14*6F
$BDGSV,3,3,09,233,43,116,39*68
$GPGSA,A,3,07,20,30,09,11,05,06,16,04,,,,0.8,0.4,0.6*37
$GNGSA,A,3,71,73,74,80,86,87,,,,,,,0.8,0.4,0.6*2E
$GAGSA,A,3,104,110,111,121,,,,,,,,,0.8,0.4,0.6*2F
$BDGSA,A,3,207,209,214,224,225,,,,,,,,0.8,0.4,0.6*11
$GPRMC,094124.000,A,5151.8454,N,01022.6368,E,30.3,77.6,201123,,,A*66
$GPGGA,094125.000,5151.8473,N,01022.6511,E,1,22,0.6,569.0,M,47.4,M,,*56
$GPVTG,76.1,T,,M,30.7,N,56.8,K,A*32
$GPGSV,3,1,09,04,09,084,29,05,28,307,28,06,16,207,31,07,72,124,34*7D
$GPGSV,3,2,09,09,42,085,36,11,34,238,39,16,12,030,23,20,60,280,32*7B
$GPGSV,3,3,09,30,53,195,37*4C
$GLGSV,2,1,07,70,44,095,23,71,71,340,33,73,44,148,36,74,08,178,27*60
$GLGSV,2,2,07,80,48,057,43,86,15,241,25,87,29,296,27*55
$GAGSV,2,1,05,104,85,339,31,110,17,207,30,111,32,233,36,119,29,084,30*67
$GAGSV,2,2,05,121,31,068,32*62
$BDGSV,3,1,09,205,15,125,23,206,04,055,13,207,09,078,25,209,20,055,28*62
$BDGSV,3,2,09,214,23,114,33,224,46,071,38,225,45,160,39,226,08,036,13*69
$BDGSV,3,3,09,233,43,116,39*68
$GPGSA,A,3,07,20,30,09,11,05,06,16,04,,,,1.0,0.6,0.6*3C
$GNGSA,A,3,71,73,74,80,86,,,,,,,,1.0,0.6,0.6*2A
$GAGSA,A,3,104,110,111,121,,,,,,,,,1.0,0.6,0.6*24
$BDGSA,A,3,207,214,224,225,,,,,,,,,1.0,0.6,0.6*21
$GPRMC,094125.000,A,5151.8473,N,01022.6511,E,30.7,76.1,201123,,,A*68
$GPGGA,094126.000,5151.8493,N,01022.6655,E,1,21,0.6,569.4,M,47.4,M,,*5F
$GPVTG,75.7,T,,M,30.6,N,56.7,K,A*39
$GPGSV,3,1,09,04,09,084,29,05,28,307,28,06,16,207,30,07,72,124,34*7C
$GPGSV,3,2,09,09,42,085,36,11,34,238,39,16,12,030,23,20,60,280,31*78
$GPGSV,3,3,09,30,53,195,37*4C
$GLGSV,2,1,07,70,44,095,22,71,71,340,33,73,44,148,36,74,08,178,27*61
$GLGSV,2,2,07,80,48,057,43,86,15,241,25,87,29,296,27*55
$GAGSV,2,1,05,104,85,338,31,110,17,207,30,111,32,233,36,119,29,084,30*66
$GAGSV,2,2,05,121,31,068,32*62
$BDGSV,3,1,09,205,15,125,22,206,04,055,12,207,09,078,25,209,20,055,28*62
$BDGSV,3,2,09,214,23,114,33,224,46,071,37,225,45,160,39,226,08,036,12*67
$BDGSV,3,3,09,233,43,116,39*68
$GPGSA,A,3,07,20,30,09,11,05,06,16,04,,,,1.0,0.6,0.8*32
$GNGSA,A,3,71,73,80,,,,,,,,,,1.0,0.6,0.8*29
$GAGSA,A,3,104,110,111,121,,,,,,,,,1.0,0.6,0.8*2A
$BDGSA,A,3,207,209,214,224,225,,,,,,,,1.0,0.6,0.8*14
$GPRMC,094126.000,A,5151.8493,N,01022.6655,E,30.6,75.7,201123,,,A*62
$GPGGA,094127.000,5151.8517,N,01022.6791,E,1,22,0.6,569.3,M,47.4,M,,*5E
$GPVTG,72.4,T,,M,30.9,N,57.2,K,A*36
$GPGSV,3,1,09,04,08,084,28,05,28,307,28,06,16,207,30,07,72,124,34*7C
$GPGSV,3,2,09,09,42,085,35,11,34,238,39,16,12,030,22,20,60,280,31*7A
$GPGSV,3,3,09,30,53,195,37*4C
$GLGSV,2,1,07,70,44,095,23,71,71,340,33,73,44,148,35,74,08,178,27*63
$GLGSV,2,2,07,80,48,057,42,86,15,241,24,87,29,296,26*54
$GAGSV,2,1,05,104,85,341,31,110,16,207,30,111,32,233,36,119,29,084,29*61
$GAGSV,2,2,05,121,31,068,31*61
$BDGSV,2,1,07,205,15,125,20,207,09,078,25,209,20,055,27,214,23,114,33*61
$BDGSV,2,2,07,224,46,071,37,225,45,160,39,233,43,116,39*6B
$GPGSA,A,3,07,20,30,09,11,05,06,16,04,,,,1.0,0.6,0.8*32
$GNGSA,A,3,71,73,80,87,,,,,,,,,1.0,0.6,0.8*26
$GAGSA,A,3,104,110,111,121,,,,,,,,,1.0,0.6,0.8*2A
$BDGSA,A,3,207,209,214,224,225,,,,,,,,1.0,0.6,0.8*14
$GPRMC,094127.000,A,5151.8517,N,01022.6791,E,30.9,72.4,201123,,,A*6C
$GPGGA,094128.000,5151.8546,N,01022.6923,E,1,21,0.6,569.4,M,47.4,M,,*56
$GPVTG,68.7,T,,M,31.1,N,57.5,K,A*30
$GPGSV,3,1,09,04,08,084,28,05,28,307,28,06,16,207,30,07,72,123,34*7B
$GPGSV,3,2,09,09,42,085,35,11,34,238,39,16,12,030,22,20,60,280,31*7A
$GPGSV,3,3,09,30,53,195,36*4D
$GLGSV,2,1,07,70,44,095,23,71,71,340,33,73,44,148,35,74,08,178,26*62
$GLGSV,2,2,07,80,48,057,42,86,15,241,24,87,29,296,26*54
$GAGSV,2,1,05,104,85,341,31,110,16,207,30,111,31,232,35,119,29,084,29*60
$GAGSV,2,2,05,121,31,068,31*61
$BDGSV,2,1,07,205,15,125,19,207,09,078,25,209,20,055,27,214,23,114,33*6B
$BDGSV,2,2,07,224,46,071,36,225,45,160,39,233,43,116,39*6A
$GPGSA,A,3,07,20,30,09,11,05,06,,,,,,1.0,0.6,0.8*31
$GNGSA,A,3,71,73,74,80,87,,,,,,,,1.0,0.6,0.8*25
$GAGSA,A,3,104,110,111,121,,,,,,,,,1.0,0.6,0.8*2A
$BDGSA,A,3,207,209,214,224,225,,,,,,,,1.0,0.6,0.8*14
$GPRMC,094128.000,A,5151.8546,N,01022.6923,E,31.1,68.7,201123,,,A*61
$GPGGA,094129.000,5151.8578,N,01022.7056,E,1,17,0.6,569.3,M,47.4,M,,*52
$GPVTG,68.0,T,,M,31.4,N,58.1,K,A*39
$GPGSV,3,1,09,04,08,084,27,05,28,307,28,06,16,207,30,07,72,123,34*74
$GPGSV,3,2,09,09,41,085,35,11,34,238,39,16,12,030,22,20,60,280,33*7B
$GPGSV,3,3,09,30,53,195,37*4C
$GLGSV,2,1,07,70,44,095,22,71,71,340,33,73,44,148,35,74,08,178,26*63
$GLGSV,2,2,07,80,48,057,41,86,15,241,24,87,29,296,26*57
$GAGSV,2,1,05,104,85,341,31,110,16,207,29,111,31,232,35,119,29,085,28*68
$GAGSV,2,2,05,121,31,068,30*60
$BDGSV,2,1,07,205,15,125,17,207,09,078,25,209,20,055,27,214,23,115,33*64
$BDGSV,2,2,07,224,46,071,36,225,45,160,38,233,43,116,39*6B
$GPGSA,A,3,07,20,30,09,11,05,06,,,,,,1.2,0.6,1.0*3A
$GNGSA,A,3,71,73,80,,,,,,,,,,1.2,0.6,1.0*22
