$GPGGA,155747.900,,,,,0,,,,,,,,*74
$GPVTG,0.0,T,,M,0.0,N,0.0,K,N*02
$GPGSV,2,1,05,07,34,065,35,14,46,139,44,20,36,201,29,22,33,158,47*76
$GPGSV,2,2,05,27,05,014,31*4B
$GLGSV,1,1,01,71,41,130,45*54
$GPRMC,155747.900,V,,,,,,,170923,,,N*4F
$GPGGA,155748.000,,,,,0,,,,,,,,*72
$GPVTG,0.0,T,,M,0.0,N,0.0,K,N*02
$GPGSV,2,1,05,07,34,065,35,14,46,139,44,20,36,201,29,22,33,158,47*76
$GPGSV,2,2,05,27,05,014,31*4B
$GLGSV,1,1,01,71,41,130,45*54
$GPRMC,155748.000,V,,,,,,,170923,,,N*49
$GPGGA,155749.000,,,,,0,,,,,,,,*73
$GPVTG,0.0,T,,M,0.0,N,0.0,K,N*02
$GPGSV,3,1,09,05,56,242,25,07,34,065,35,13,58,290,27,14,46,139,44*7F
$GPVTG,339.0,T,,M,0.5,N,1.0,K,A*00
$GPGSV,3,1,11,05,56,242,27,07,34,065,37,08,11,048,27,13,58,290,29*75
$GPGSV,3,2,11,14,46,139,43,15,23,294,33,18,14,319,28,20,36,201,29*7B
$GPGSV,3,3,11,22,33,158,47,27,05,014,32,30,64,071,44*45
$GLGSV,1,1,04,71,41,130,44,72,84,339,36,81,14,344,30,82,04,029,32*6D
$GAGSV,2,1,05,105,73,112,34,113,15,324,30,124,54,108,37,125,27,175,40*65
$GAGSV,2,2,05,131,27,046,38*62
$BDGSV,2,1,08,207,25,064,29,210,28,078,31,212,04,015,26,219,19,309,31*63
$BDGSV,2,2,08,220,66,281,30,223,50,064,43,232,46,153,43,237,64,188,35*69
$GPGSA,A,3,30,13,05,14,20,07,22,15,18,08,,,1.0,0.4,0.8*3E
$GNGSA,A,3,71,72,81,,,,,,,,,,1.0,0.4,0.8*2B
$GAGSA,A,3,105,113,124,125,131,,,,,,,,1.0,0.4,0.8*1B
$BDGSA,A,3,207,210,219,220,223,232,,,,,,,1.0,0.4,0.8*22
$GPRMC,155753.000,A,5147.9380,N,01021.0197,E,0.5,339.0,170923,,,A*64
$GPGGA,155754.000,5147.9391,N,01021.0186,E,1,24,0.4,584.9,M,47.4,M,,*56
$GPVTG,339.0,T,,M,0.0,N,0.0,K,A*04
$GPGSV,3,1,11,05,56,242,27,07,34,065,38,08,11,048,27,13,58,290,31*73
$GPGSV,3,2,11,14,46,139,43,15,23,294,35,18,14,319,28,20,36,201,29*7D
$GPGSV,3,3,11,22,33,158,46,27,05,014,30,30,64,071,44*46
$GLGSV,1,1,04,71,41,130,43,72,84,339,36,81,14,344,37,82,04,029,31*6E
$GAGSV,2,1,05,105,73,112,35,113,15,324,30,124,54,108,38,125,27,175,40*6B
$GAGSV,2,2,05,131,27,046,38*62
$BDGSV,2,1,08,207,25,064,29,210,28,078,32,212,04,015,25,219,19,309,32*60
$BDGSV,2,2,08,220,66,281,35,223,50,064,43,232,46,153,43,237,64,188,36*6F
$GPGSA,A,3,30,13,05,14,20,07,22,15,18,08,,,1.0,0.4,0.8*3E
$GNGSA,A,3,71,72,81,,,,,,,,,,1.0,0.4,0.8*2B
$GAGSA,A,3,105,113,124,125,131,,,,,,,,1.0,0.4,0.8*1B
$BDGSA,A,3,207,210,219,220,223,232,,,,,,,1.0,0.4,0.8*22
$GPRMC,155754.000,A,5147.9391,N,01021.0186,E,0.0,339.0,170923,,,A*66
$GPGGA,155755.000,5147.9391,N,01021.0186,E,1,24,0.4,584.9,M,47.4,M,,*57
$GPVTG,339.0,T,,M,0.0,N,0.0,K,A*04
$GPGSV,3,1,11,05,56,242,28,07,34,065,38,08,11,048,27,13,58,290,31*7C
$GPGSV,3,2,11,14,46,139,42,15,23,294,37,18,14,319,28,20,36,201,29*7E
$GPGSV,3,3,11,22,33,158,46,27,05,014,29,30,64,071,44*4E
$GLGSV,2,1,05,71,41,130,43,72,84,339,35,73,49,046,40,81,14,344,43*64
$GLGSV,2,2,05,82,04,029,29*5E
$GAGSV,2,1,05,105,73,112,36,113,15,324,30,124,54,108,38,125,27,175,40*68
$GAGSV,2,2,05,131,27,046,38*62
$BDGSV,2,1,08,207,25,064,30,210,28,078,32,212,04,015,23,219,19,309,32*6E
$BDGSV,2,2,08,220,66,281,43,223,50,064,43,232,46,153,42,237,64,188,36*6F
$GPGSA,A,3,30,13,05,14,20,07,22,15,18,08,,,1.0,0.4,0.8*3E
$GNGSA,A,3,71,72,81,,,,,,,,,,1.0,0.4,0.8*2B
$GAGSA,A,3,105,113,124,125,131,,,,,,,,1.0,0.4,0.8*1B
$BDGSA,A,3,207,210,219,220,223,232,,,,,,,1.0,0.4,0.8*22
$GPRMC,155755.000,A,5147.9391,N,01021.0186,E,0.0,339.0,170923,,,A*67
$GPGGA,155756.000,5147.9391,N,01021.0186,E,1,24,0.4,584.9,M,47.4,M,,*54
$GPVTG,339.0,T,,M,0.0,N,0.0,K,A*04
$GPGSV,3,1,11,05,56,242,29,07,34,065,38,08,11,048,27,13,58,290,35*79
$GPGSV,3,2,11,14,46,139,42,15,23,294,37,18,14,319,28,20,36,201,29*7E
$GPGSV,3,3,11,22,33,158,45,27,05,014,27,30,64,071,44*43
$GLGSV,2,1,05,71,41,130,43,72,84,339,35,73,49,046,40,81,14,344,42*65
$GLGSV,2,2,05,82,04,029,28*5F
$GAGSV,2,1,05,105,73,112,36,113,15,324,30,124,54,108,38,125,27,175,39*66
$GAGSV,2,2,05,131,27,046,38*62
$BDGSV,2,1,08,207,25,064,30,210,28,078,32,212,04,015,22,219,19,309,32*6F
$BDGSV,2,2,08,220,66,281,43,223,50,064,43,232,46,153,42,237,64,188,36*6F
$GPGSA,A,3,30,13,05,14,20,07,22,15,18,08,,,1.0,0.4,0.8*3E
$GNGSA,A,3,71,72,73,81,,,,,,,,,1.0,0.4,0.8*2F
$GAGSA,A,3,105,113,124,125,131,,,,,,,,1.0,0.4,0.8*1B
$BDGSA,A,3,207,219,220,223,232,,,,,,,,1.0,0.4,0.8*11
$GPRMC,155756.000,A,5147.9391,N,01021.0186,E,0.0,339.0,170923,,,A*64
$GPGGA,155757.000,5147.9391,N,01021.0186,E,1,24,0.4,584.9,M,47.4,M,,*55
$GPVTG,339.0,T,,M,0.0,N,0.0,K,A*04
$GPGSV,3,1,11,05,56,242,34,07,34,065,45,08,11,048,27,13,58,290,35*7F
$GPGSV,3,2,11,14,46,139,41,15,23,294,37,18,14,319,28,20,36,201,29*7D
$GPGSV,3,3,11,22,33,158,45,27,05,014,26,30,64,071,44*42
$GLGSV,2,1,05,71,41,130,43,72,84,339,35,73,49,046,40,81,14,344,42*65
$GLGSV,2,2,05,82,04,029,26*51
$GAGSV,2,1,05,105,73,112,36,113,15,324,30,124,54,108,38,125,27,175,39*66
$GAGSV,2,2,05,131,27,046,38*62
$BDGSV,2,1,08,207,25,064,30,210,28,078,32,212,04,015,20,219,19,309,32*6D
$BDGSV,2,2,08,220,66,281,43,223,50,064,43,232,46,153,42,237,64,188,36*6F
$GPGSA,A,3,30,13,05,14,20,07,22,15,18,08,,,1.0,0.4,0.8*3E
$GNGSA,A,3,71,72,73,81,,,,,,,,,1.0,0.4,0.8*2F
$GAGSA,A,3,105,113,124,125,131,,,,,,,,1.0,0.4,0.8*1B
$BDGSA,A,3,207,219,220,223,232,,,,,,,,1.0,0.4,0.8*11
$GPRMC,155757.000,A,5147.9391,N,01021.0186,E,0.0,339.0,170923,,,A*65
$GPGGA,155758.000,5147.9391,N,01021.0186,E,1,24,0.4,584.9,M,47.4,M,,*5A
$GPVTG,339.0,T,,M,0.0,N,0.0,K,A*04
$GPGSV,3,1,11,05,56,242,34,07,34,065,45,08,11,048,27,13,58,290,36*7C
$GPGSV,3,2,11,14,46,139,41,15,23,294,37,18,14,319,28,20,36,201,33*76
$GPGSV,3,3,11,22,33,158,44,27,05,014,24,30,64,071,44*41
$GLGSV,2,1,05,71,41,130,43,72,84,339,35,73,49,046,39,81,14,344,42*6B
$GLGSV,2,2,05,82,04,029,25*52
$GAGSV,2,1,05,105,73,112,36,113,15,324,30,124,54,108,38,125,27,175,39*66
$GAGSV,2,2,05,131,27,046,38*62
$BDGSV,2,1,08,207,25,064,30,210,28,078,33,212,04,015,19,219,19,309,32*66
$BDGSV,2,2,08,220,66,281,43,223,50,064,43,232,46,153,41,237,64,188,36*6C
$GPGSA,A,3,30,13,05,14,20,07,22,15,18,08,,,1.0,0.4,0.8*3E
$GNGSA,A,3,71,72,73,81,,,,,,,,,1.0,0.4,0.8*2F
$GAGSA,A,3,105,113,124,125,131,,,,,,,,1.0,0.4,0.8*1B
$BDGSA,A,3,207,219,220,223,232,,,,,,,,1.0,0.4,0.8*11
$GPRMC,155758.000,A,5147.9391,N,01021.0186,E,0.0,339.0,170923,,,A*6A
$GPGGA,155759.000,5147.9391,N,01021.0186,E,1,23,0.6,584.9,M,47.4,M,,*5E
$GPVTG,339.0,T,,M,0.0,N,0.0,K,A*04
$GPGSV,3,1,11,05,56,242,34,07,34,065,45,08,11,048,27,13,58,290,37*7D
$GPGSV,3,2,11,14,46,139,41,15,23,294,37,18,14,319,28,20,36,201,38*7D
$GPGSV,3,3,11,22,33,158,44,27,05,014,23,30,64,071,44*46
$GLGSV,2,1,05,71,41,130,42,72,84,339,35,73,49,046,39,81,14,344,42*6A
$GLGSV,2,2,05,82,04,029,23*54
$GAGSV,2,1,05,105,73,112,36,113,15,324,29,124,54,108,38,125,27,175,38*6F
$GAGSV,2,2,05,131,27,046,38*62
$BDGSV,2,1,08,207,25,064,30,210,28,078,33,212,04,015,17,219,19,309,32*68
$BDGSV,2,2,08,220,66,281,43,223,50,064,42,232,46,153,41,237,64,188,36*6D
$GPGSA,A,3,30,13,05,14,20,07,22,15,18,,,,1.0,0.6,1.0*3D
$GNGSA,A,3,71,72,73,81,,,,,,,,,1.0,0.6,1.0*24
$GAGSA,A,3,105,113,124,125,131,,,,,,,,1.0,0.6,1.0*10
$BDGSA,A,3,207,219,220,223,232,,,,,,,,1.0,0.6,1.0*1A
$GPRMC,155759.000,A,5147.9391,N,01021.0186,E,0.0,339.0,170923,,,A*6B
$GPGGA,155800.000,5147.9391,N,01021.0186,E,1,24,0.4,584.9,M,47.4,M,,*58
$GPVTG,339.0,T,,M,0.0,N,0.0,K,A*04
$GPGSV,3,1,11,05,56,242,34,07,34,065,45,08,11,048,27,13,58,290,37*7D
$GPGSV,3,2,11,14,46,139,40,15,23,294,36,18,14,319,28,20,36,201,37*72
$GPGSV,3,3,11,22,33,158,43,27,05,014,21,30,64,071,44*43
$GLGSV,2,1,05,71,41,130,42,72,84,339,35,73,49,046,39,81,14,344,42*6A
$GLGSV,2,2,05,82,04,029,22*55
$GAGSV,2,1,05,105,73,112,36,113,15,324,29,124,54,108,38,125,27,175,38*6F
$GAGSV,2,2,05,131,27,046,38*62
$BDGSV,2,1,08,207,25,064,30,210,28,078,33,212,04,015,16,219,19,309,32*69
$BDGSV,2,2,08,220,66,281,43,223,50,064,42,232,46,153,40,237,64,188,36*6C
$GPGSA,A,3,30,13,05,14,20,07,22,15,18,08,,,1.0,0.4,0.8*3E
$GNGSA,A,3,71,72,73,81,,,,,,,,,1.0,0.4,0.8*2F
$GAGSA,A,3,105,113,124,125,131,,,,,,,,1.0,0.4,0.8*1B
$BDGSA,A,3,207,219,220,223,232,,,,,,,,1.0,0.4,0.8*11
$GPRMC,155800.000,A,5147.9391,N,01021.0186,E,0.0,339.0,170923,,,A*68
$GPGGA,155801.000,5147.9388,N,01021.0189,E,1,24,0.4,585.3,M,47.4,M,,*55
$GPVTG,187.3,T,,M,2.0,N,3.7,K,A*06
$GPGSV,3,1,11,05,56,242,34,07,34,065,44,08,11,048,27,13,58,290,37*7C
$GPGSV,3,2,11,14,46,139,40,15,23,294,36,18,14,319,28,20,36,201,37*72
$GPGSV,3,3,11,22,33,158,43,27,05,014,20,30,64,071,44*42
$GLGSV,2,1,05,71,41,130,42,72,84,339,35,73,49,046,39,81,14,344,42*6A
$GLGSV,2,2,05,82,04,029,20*57
$GAGSV,2,1,05,105,73,112,36,113,15,324,29,124,54,108,38,125,27,175,38*6F
$GAGSV,2,2,05,131,27,046,38*62
$BDGSV,2,1,08,207,25,064,30,210,28,078,33,212,04,015,14,219,19,309,33*6A
$BDGSV,2,2,08,220,66,281,43,223,50,064,42,232,46,153,40,237,64,188,36*6C
$GPGSA,A,3,30,13,05,14,20,07,22,15,18,08,,,1.0,0.4,0.8*3E
$GNGSA,A,3,71,72,73,81,,,,,,,,,1.0,0.4,0.8*2F
$GAGSA,A,3,105,113,124,125,131,,,,,,,,1.0,0.4,0.8*1B
$BDGSA,A,3,207,219,220,223,232,,,,,,,,1.0,0.4,0.8*11
$GPRMC,155801.000,A,5147.9388,N,01021.0189,E,2.0,187.3,170923,,,A*68
$GPGGA,155802.000,5147.9382,N,01021.0191,E,1,24,0.4,585.9,M,47.4,M,,*5F
$GPVTG,192.7,T,,M,2.1,N,3.9,K,A*09
$GPGSV,3,1,11,05,56,242,34,07,34,065,44,08,11,048,27,13,58,290,37*7C
$GPGSV,3,2,11,14,46,139,40,15,23,294,36,18,14,319,28,20,36,201,37*72
$GPGSV,3,3,11,22,33,158,43,27,05,014,18,30,64,071,44*49
$GLGSV,2,1,05,71,41,130,42,72,84,339,35,73,49,046,39,81,14,344,41*69
$GLGSV,2,2,05,82,04,029,19*5D
$GAGSV,2,1,05,105,73,112,37,113,15,324,29,124,54,108,38,125,27,175,38*6E
$GAGSV,2,2,05,131,27,046,38*62
$BDGSV,2,1,08,207,25,064,30,210,28,078,33,212,04,015,13,219,19,309,33*6D
$BDGSV,2,2,08,220,66,281,42,223,50,064,42,232,46,153,40,237,64,188,36*6D
$GPGSA,A,3,30,13,05,14,20,07,22,15,18,08,,,1.0,0.4,0.8*3E
$GNGSA,A,3,71,72,73,81,,,,,,,,,1.0,0.4,0.8*2F
$GAGSA,A,3,105,113,124,125,131,,,,,,,,1.0,0.4,0.8*1B
$BDGSA,A,3,207,219,220,223,232,,,,,,,,1.0,0.4,0.8*11
$GPRMC,155802.000,A,5147.9382,N,01021.0191,E,2.1,192.7,170923,,,A*69
$GPGGA,155803.000,5147.9375,N,01021.0192,E,1,23,0.6,586.7,M,47.4,M,,*5D
$GPVTG,198.0,T,,M,2.0,N,3.6,K,A*0A
$GPGSV,3,1,11,05,56,242,34,07,34,065,44,08,11,048,27,13,58,290,37*7C
$GPGSV,3,2,11,14,46,139,40,15,23,294,36,18,14,319,28,20,36,201,37*72
$GPGSV,3,3,11,22,33,158,42,27,05,014,17,30,64,071,44*47
$GLGSV,2,1,05,71,41,130,42,72,84,339,35,73,49,046,39,81,14,344,40*68
$GLGSV,2,2,05,82,04,029,17*53
$GAGSV,2,1,05,105,73,112,37,113,15,324,29,124,54,108,38,125,27,175,38*6E
$GAGSV,2,2,05,131,27,046,38*62
$BDGSV,2,1,08,207,25,064,30,210,28,078,33,212,04,015,13,219,19,309,33*6D
$BDGSV,2,2,08,220,66,281,41,223,50,064,42,232,46,153,39,237,64,188,37*61
$GPGSA,A,3,30,13,05,14,20,07,22,15,18,08,,,1.0,0.6,0.8*3C
$GNGSA,A,3,71,72,73,81,,,,,,,,,1.0,0.6,0.8*2D
$GAGSA,A,3,105,124,125,131,,,,,,,,,1.0,0.6,0.8*2A
$BDGSA,A,3,207,219,220,223,232,,,,,,,,1.0,0.6,0.8*13
$GPRMC,155803.000,A,5147.9375,N,01021.0192,E,2.0,198.0,170923,,,A*6F
$GPGGA,155804.000,5147.9368,N,01021.0190,E,1,23,0.6,587.0,M,47.4,M,,*52
$GPVTG,194.1,T,,M,2.1,N,3.9,K,A*09
$GPGSV,3,1,11,05,56,242,33,07,34,065,44,08,11,048,27,13,58,290,37*7B
$GPGSV,3,2,11,14,46,139,40,15,23,294,36,18,14,319,29,20,36,201,38*7C
$GPGSV,3,3,11,22,33,158,42,27,05,014,15,30,64,071,44*45
$GLGSV,2,1,06,65,27,315,28,71,41,130,42,72,84,339,35,73,49,046,39*6B
$GLGSV,2,2,06,81,14,344,40,82,04,029,16*6A
$GAGSV,2,1,05,105,73,112,37,113,15,324,29,124,54,108,39,125,27,175,37*60
$GAGSV,2,2,05,131,27,046,38*62
$BDGSV,2,1,08,207,25,064,30,210,28,078,33,212,04,015,12,219,19,309,34*6B
$BDGSV,2,2,08,220,66,281,41,223,50,064,43,232,46,153,39,237,64,188,37*60
$GPGSA,A,3,30,13,05,14,20,07,22,15,18,,,,1.0,0.6,1.0*3D
$GNGSA,A,3,71,72,73,81,,,,,,,,,1.0,0.6,1.0*24
$GAGSA,A,3,105,113,124,125,131,,,,,,,,1.0,0.6,1.0*10
$BDGSA,A,3,207,219,220,223,232,,,,,,,,1.0,0.6,1.0*1A
$GPRMC,155804.000,A,5147.9368,N,01021.0190,E,2.1,194.1,170923,,,A*6A
$GPGGA,155805.000,5147.9362,N,01021.0190,E,1,24,0.4,587.1,M,47.4,M,,*5D
$GPVTG,184.8,T,,M,2.0,N,3.7,K,A*0E
$GPGSV,3,1,11,05,56,242,33,07,34,065,44,08,11,048,27,13,58,290,36*7A
$GPGSV,3,2,11,14,46,139,39,15,23,294,36,18,14,319,29,20,36,201,38*72
$GPGSV,3,3,11,22,33,158,42,27,05,014,14,30,64,071,44*44
$GLGSV,2,1,06,65,27,315,28,71,41,130,42,72,84,339,35,73,49,046,39*6B
$GLGSV,2,2,06,81,14,344,39,82,04,029,14*66
$GAGSV,2,1,05,105,73,112,37,113,15,324,29,124,54,108,39,125,27,175,37*60
$GAGSV,2,2,05,131,27,046,38*62
$BDGSV,2,1,07,207,25,064,31,210,28,078,33,219,19,309,34,220,66,281,40*68
$BDGSV,2,2,07,223,50,064,43,232,46,153,39,237,64,188,37*61
$GPGSA,A,3,30,13,05,14,20,07,22,15,18,08,,,1.0,0.4,0.8*3E
$GNGSA,A,3,65,71,72,73,81,,,,,,,,1.0,0.4,0.8*2C
$GAGSA,A,3,105,113,124,125,131,,,,,,,,1.0,0.4,0.8*1B
$BDGSA,A,3,207,220,223,232,,,,,,,,,1.0,0.4,0.8*2B
$GPRMC,155805.000,A,5147.9362,N,01021.0190,E,2.0,184.8,170923,,,A*68
$GPGGA,155806.000,5147.9356,N,01021.0192,E,1,23,0.6,586.8,M,47.4,M,,*56
$GPVTG,180.2,T,,M,1.8,N,3.3,K,A*0F
$GPGSV,3,1,11,05,56,242,33,07,34,065,44,08,11,048,27,13,58,290,36*7A
$GPGSV,3,2,11,14,46,139,39,15,23,294,35,18,14,319,29,20,36,201,38*71
$GPGSV,3,3,11,22,33,158,42,27,05,014,13,30,64,071,44*43
$GLGSV,2,1,06,65,27,315,28,71,41,130,42,72,84,339,35,73,49,046,39*6B
$GLGSV,2,2,06,81,14,344,39,82,04,029,13*61
$GAGSV,2,1,05,105,73,112,37,113,15,324,28,124,54,108,39,125,27,175,37*61
$GAGSV,2,2,05,131,27,046,39*63
$BDGSV,2,1,07,207,25,064,31,210,28,078,33,219,19,309,34,220,66,281,40*68
$BDGSV,2,2,07,223,50,064,43,232,46,153,39,237,64,188,37*61
$GPGSA,A,3,30,13,05,14,20,07,22,15,18,08,,,1.0,0.6,0.8*3C
$GNGSA,A,3,65,71,72,73,81,,,,,,,,1.0,0.6,0.8*2E
$GAGSA,A,3,105,124,125,131,,,,,,,,,1.0,0.6,0.8*2A
$BDGSA,A,3,207,220,223,232,,,,,,,,,1.0,0.6,0.8*29
$GPRMC,155806.000,A,5147.9356,N,01021.0192,E,1.8,180.2,170923,,,A*6B
$GPGGA,155807.000,5147.9347,N,01021.0192,E,1,24,0.4,586.7,M,47.4,M,,*5D
$GPVTG,179.0,T,,M,2.0,N,3.6,K,A*05
$GPGSV,3,1,11,05,56,242,33,07,34,065,44,08,11,048,27,13,58,290,35*79
$GPGSV,3,2,11,14,46,139,39,15,23,294,35,18,14,319,30,20,36,201,38*79
$GPGSV,3,3,11,22,33,158,41,27,05,014,12,30,64,071,44*41
$GLGSV,2,1,06,65,27,315,28,71,41,130,41,72,84,339,35,73,49,046,39*68
$GLGSV,2,2,06,81,14,344,38,82,04,029,13*60
$GAGSV,2,1,05,105,73,112,37,113,15,324,28,124,54,108,39,125,27,175,37*61
$GAGSV,2,2,05,131,27,046,39*63
$BDGSV,2,1,08,205,14,125,36,207,25,064,32,210,28,078,33,219,19,309,34*6A
$BDGSV,2,2,08,220,66,281,39,223,50,064,44,232,46,153,40,237,64,188,37*66
$GPGSA,A,3,30,13,05,14,20,07,22,15,18,08,,,1.0,0.4,0.8*3E
$GNGSA,A,3,65,71,72,73,81,,,,,,,,1.0,0.4,0.8*2C
$GAGSA,A,3,105,113,124,125,131,,,,,,,,1.0,0.4,0.8*1B
$BDGSA,A,3,207,220,223,232,,,,,,,,,1.0,0.4,0.8*2B
$GPRMC,155807.000,A,5147.9347,N,01021.0192,E,2.0,179.0,170923,,,A*65
$GPGGA,155808.000,5147.9340,N,01021.0192,E,1,24,0.4,586.5,M,47.4,M,,*57
$GPVTG,181.4,T,,M,1.9,N,3.6,K,A*0C
$GPGSV,3,1,10,05,56,242,33,07,34,065,44,08,11,048,27,13,58,290,35*78
$GPGSV,3,2,10,14,46,139,39,15,23,294,35,18,14,319,30,20,36,201,38*78
$GPGSV,3,3,10,22,33,158,41,30,64,071,44*76
$GLGSV,2,1,06,65,27,315,28,71,41,130,41,72,84,339,35,73,49,046,39*68
$GLGSV,2,2,06,81,14,344,37,82,04,029,12*6E
$GAGSV,2,1,05,105,73,112,37,113,15,324,28,124,54,108,39,125,27,175,37*61
$GAGSV,2,2,05,131,27,046,39*63
$BDGSV,2,1,08,205,14,125,36,207,25,064,33,210,28,078,33,219,19,309,34*6B
$BDGSV,2,2,08,220,66,281,39,223,50,064,44,232,46,153,40,237,64,188,37*66
$GPGSA,A,3,30,13,05,14,20,07,22,15,18,08,,,1.0,0.4,0.8*3E
$GNGSA,A,3,71,72,73,81,,,,,,,,,1.0,0.4,0.8*2F
$GAGSA,A,3,105,113,124,125,131,,,,,,,,1.0,0.4,0.8*1B
$BDGSA,A,3,205,207,220,223,232,,,,,,,,1.0,0.4,0.8*1C
$GPRMC,155808.000,A,5147.9340,N,01021.0192,E,1.9,181.4,170923,,,A*64
$GPGGA,155809.000,5147.9333,N,01021.0193,E,1,23,0.4,586.9,M,47.4,M,,*58
$GPVTG,184.6,T,,M,1.9,N,3.6,K,A*0B
$GPGSV,3,1,10,05,56,242,33,07,34,065,44,08,11,048,27,13,58,290,35*78
$GPGSV,3,2,10,14,46,139,39,15,23,294,35,18,14,319,30,20,36,201,38*78
$GPGSV,3,3,10,22,33,158,41,30,64,071,43*71
$GLGSV,2,1,05,65,27,315,28,71,41,130,41,72,84,339,34,73,49,046,40*64
$GLGSV,2,2,05,81,14,344,37*5B
$GAGSV,2,1,05,105,73,112,37,113,15,324,28,124,54,108,39,125,27,175,36*60
$GAGSV,2,2,05,131,27,046,39*63
$BDGSV,2,1,08,205,14,125,36,207,25,064,33,210,28,078,33,219,19,309,34*6B
$BDGSV,2,2,08,220,66,281,38,223,50,064,44,232,46,153,40,237,64,188,37*67
$GPGSA,A,3,30,13,05,14,20,07,22,15,18,08,,,1.0,0.4,0.8*3E
$GNGSA,A,3,71,72,73,81,,,,,,,,,1.0,0.4,0.8*2F
$GAGSA,A,3,105,124,125,131,,,,,,,,,1.0,0.4,0.8*28
$BDGSA,A,3,205,207,220,223,232,,,,,,,,1.0,0.4,0.8*1C
$GPRMC,155809.000,A,5147.9333,N,01021.0193,E,1.9,184.6,170923,,,A*67
$GPGGA,155810.000,5147.9327,N,01021.0195,E,1,24,0.4,587.1,M,47.4,M,,*5D
$GPVTG,180.3,T,,M,2.1,N,3.9,K,A*0E
$GPGSV,3,1,10,05,56,242,33,07,34,065,44,08,11,048,28,13,58,290,34*76
$GPGSV,3,2,10,14,46,139,39,15,23,294,35,18,14,319,30,20,36,201,38*78
$GPGSV,3,3,10,22,33,158,41,30,64,071,43*71
$GLGSV,2,1,05,65,27,315,28,71,41,130,41,72,84,339,34,73,49,046,40*64
$GLGSV,2,2,05,81,14,344,36*5A
$GAGSV,2,1,05,105,73,112,37,113,15,324,28,124,54,108,39,125,27,175,36*60
$GAGSV,2,2,05,131,27,046,39*63
$BDGSV,2,1,08,205,14,125,36,207,25,064,33,210,28,078,33,219,19,309,34*6B
$BDGSV,2,2,08,220,66,281,38,223,50,064,44,232,46,153,40,237,64,188,37*67
$GPGSA,A,3,30,13,05,14,20,07,22,15,18,08,,,1.0,0.4,0.8*3E
$GNGSA,A,3,71,72,73,81,,,,,,,,,1.0,0.4,0.8*2F
$GAGSA,A,3,105,113,124,125,131,,,,,,,,1.0,0.4,0.8*1B
$BDGSA,A,3,205,207,220,223,232,,,,,,,,1.0,0.4,0.8*1C
$GPRMC,155810.000,A,5147.9327,N,01021.0195,E,2.1,180.3,170923,,,A*66
$GPGGA,155811.000,5147.9321,N,01021.0200,E,1,23,0.4,587.8,M,47.4,M,,*5B
$GPVTG,176.3,T,,M,1.9,N,3.5,K,A*00
$GPGSV,3,1,10,05,56,242,33,07,34,065,44,08,11,048,28,13,58,290,34*76
$GPGSV,3,2,10,14,46,139,39,15,23,294,35,18,14,319,30,20,36,201,38*78
$GPGSV,3,3,10,22,33,158,41,30,64,071,43*71
$GLGSV,2,1,05,65,27,315,28,71,41,130,41,72,84,339,34,73,49,046,40*64
$GLGSV,2,2,05,81,14,344,36*5A
$GAGSV,2,1,05,105,73,112,37,113,15,324,29,124,54,108,40,125,27,175,36*6F
$GAGSV,2,2,05,131,27,046,39*63
$BDGSV,2,1,08,205,14,125,36,207,25,064,33,210,28,078,33,219,19,309,34*6B
$BDGSV,2,2,08,220,66,281,38,223,50,064,44,232,46,153,40,237,64,188,38*68
$GPGSA,A,3,30,13,05,14,20,07,22,15,18,,,,1.0,0.4,0.8*36
$GNGSA,A,3,71,72,73,81,,,,,,,,,1.0,0.4,0.8*2F
$GAGSA,A,3,105,113,124,125,131,,,,,,,,1.0,0.4,0.8*1B
$BDGSA,A,3,205,207,220,223,232,,,,,,,,1.0,0.4,0.8*1C
$GPRMC,155811.000,A,5147.9321,N,01021.0200,E,1.9,176.3,170923,,,A*6C
$GPGGA,155812.000,5147.9313,N,01021.0204,E,1,24,0.4,588.0,M,47.4,M,,*5D
$GPVTG,174.7,T,,M,2.2,N,4.0,K,A*0C
$GPGSV,3,1,10,05,56,242,32,07,34,065,44,08,11,048,28,13,58,290,34*77
$GPGSV,3,2,10,14,46,139,40,15,23,294,35,18,14,319,30,20,36,201,38*76
$GPGSV,3,3,10,22,33,158,41,30,64,071,43*71
$GLGSV,2,1,05,65,27,315,28,71,41,130,41,72,84,339,34,73,49,046,40*64
$GLGSV,2,2,05,81,14,344,35*59
$GAGSV,2,1,05,105,73,112,37,113,15,324,29,124,54,108,40,125,27,175,36*6F
$GAGSV,2,2,05,131,27,046,39*63
$BDGSV,2,1,08,205,14,125,36,207,25,064,33,210,28,078,34,219,19,309,34*6C
$BDGSV,2,2,08,220,66,281,37,223,50,064,44,232,46,153,40,237,64,188,38*67
$GPGSA,A,3,30,13,05,14,20,07,22,15,18,08,,,1.0,0.4,0.8*3E
$GNGSA,A,3,71,72,73,81,,,,,,,,,1.0,0.4,0.8*2F
$GAGSA,A,3,105,113,124,125,131,,,,,,,,1.0,0.4,0.8*1B
$BDGSA,A,3,205,207,220,223,232,,,,,,,,1.0,0.4,0.8*1C
$GPRMC,155812.000,A,5147.9313,N,01021.0204,E,2.2,174.7,170923,,,A*64
$GPGGA,155813.000,5147.9306,N,01021.0208,E,1,23,0.4,588.4,M,47.4,M,,*57
$GPVTG,180.1,T,,M,2.1,N,3.8,K,A*0D
$GPGSV,3,1,10,05,56,242,32,07,34,065,43,08,11,048,28,13,58,290,33*77
$GPGSV,3,2,10,14,46,139,40,15,23,294,35,18,14,319,30,20,36,201,38*76
$GPGSV,3,3,10,22,33,158,41,30,64,071,43*71
$GLGSV,2,1,05,65,27,315,28,71,41,130,41,72,84,339,34,73,49,046,40*64
$GLGSV,2,2,05,81,14,344,35*59
$GAGSV,2,1,05,105,73,112,37,113,15,324,29,124,54,108,40,125,27,175,36*6F
$GAGSV,2,2,05,131,27,046,39*63
$BDGSV,2,1,08,205,14,125,35,207,25,064,34,210,28,078,35,219,19,309,34*69
$BDGSV,2,2,08,220,66,281,37,223,50,064,44,232,46,153,40,237,64,188,38*67
$GPGSA,A,3,30,13,05,14,20,07,22,15,18,,,,1.0,0.4,0.8*36
$GNGSA,A,3,71,72,73,81,,,,,,,,,1.0,0.4,0.8*2F
$GAGSA,A,3,105,113,124,125,131,,,,,,,,1.0,0.4,0.8*1B
$BDGSA,A,3,205,207,220,223,232,,,,,,,,1.0,0.4,0.8*1C
$GPRMC,155813.000,A,5147.9306,N,01021.0208,E,2.1,180.1,170923,,,A*63
$GPGGA,155814.000,5147.9299,N,01021.0211,E,1,24,0.4,588.3,M,47.4,M,,*5F
$GPVTG,177.5,T,,M,2.4,N,4.4,K,A*0F
$GPGSV,3,1,10,05,56,242,32,07,34,065,43,08,11,048,28,13,58,290,33*77
$GPGSV,3,2,10,14,46,139,40,15,23,294,35,18,14,319,30,20,36,201,38*76
$GPGSV,3,3,10,22,33,158,41,30,64,071,43*71
$GLGSV,2,1,05,65,27,315,28,71,41,130,41,72,84,339,34,73,49,046,40*64
$GLGSV,2,2,05,81,14,344,35*59
$GAGSV,2,1,05,105,73,112,38,113,15,324,30,124,54,108,40,125,27,175,36*68
$GAGSV,2,2,05,131,27,046,39*63
$BDGSV,2,1,08,205,14,125,35,207,25,064,34,210,28,078,35,219,19,309,34*69
$BDGSV,2,2,08,220,66,281,37,223,50,064,44,232,46,153,40,237,64,188,38*67
$GPGSA,A,3,30,13,05,14,20,07,22,15,18,08,,,1.0,0.4,0.8*3E
$GNGSA,A,3,71,72,73,81,,,,,,,,,1.0,0.4,0.8*2F
$GAGSA,A,3,105,113,124,125,131,,,,,,,,1.0,0.4,0.8*1B
$BDGSA,A,3,205,207,220,223,232,,,,,,,,1.0,0.4,0.8*1C
$GPRMC,155814.000,A,5147.9299,N,01021.0211,E,2.4,177.5,170923,,,A*62
$GPGGA,155815.000,5147.9290,N,01021.0212,E,1,24,0.4,588.2,M,47.4,M,,*55
$GPVTG,178.1,T,,M,2.6,N,4.8,K,A*0A
$GPGSV,3,1,10,05,56,242,32,07,34,065,43,08,11,048,28,13,58,290,33*77
$GPGSV,3,2,10,14,46,139,40,15,23,294,34,18,14,319,30,20,36,201,37*78
$GPGSV,3,3,10,22,33,158,41,30,64,071,43*71
$GLGSV,2,1,05,65,27,315,28,71,41,130,41,72,84,339,34,73,49,046,41*65
$GLGSV,2,2,05,81,14,344,34*58
$GAGSV,2,1,05,105,73,112,38,113,15,324,30,124,54,108,40,125,27,175,36*68
$GAGSV,2,2,05,131,27,046,39*63
$BDGSV,2,1,08,205,14,125,35,207,25,064,34,210,28,078,35,219,19,309,34*69
$BDGSV,2,2,08,220,66,281,36,223,50,064,44,232,46,153,40,237,64,188,38*66
$GPGSA,A,3,30,13,05,14,20,07,22,15,18,08,,,1.0,0.4,0.8*3E
$GNGSA,A,3,71,72,73,81,,,,,,,,,1.0,0.4,0.8*2F
$GAGSA,A,3,105,113,124,125,131,,,,,,,,1.0,0.4,0.8*1B
$BDGSA,A,3,205,207,220,223,232,,,,,,,,1.0,0.4,0.8*1C
$GPRMC,155815.000,A,5147.9290,N,01021.0212,E,2.6,178.1,170923,,,A*60
$GPGGA,155816.000,5147.9282,N,01021.0213,E,1,24,0.4,588.3,M,47.4,M,,*55
$GPVTG,183.4,T,,M,2.4,N,4.5,K,A*04
$GPGSV,3,1,10,05,56,242,32,07,34,065,43,08,11,048,28,13,58,290,32*76
$GPGSV,3,2,10,14,46,139,40,15,23,294,34,18,14,319,31,20,36,201,36*78
$GPGSV,3,3,10,22,33,158,41,30,64,071,43*71
$GLGSV,2,1,05,65,27,315,28,71,41,130,41,72,84,339,34,73,49,046,41*65
$GLGSV,2,2,05,81,14,344,34*58
$GAGSV,2,1,05,105,73,112,38,113,15,324,30,124,54,108,40,125,27,175,36*68
$GAGSV,2,2,05,131,27,046,39*63
$BDGSV,2,1,08,205,14,125,35,207,25,064,34,210,28,078,35,219,19,309,34*69
$BDGSV,2,2,08,220,66,281,36,223,50,064,44,232,46,153,40,237,64,188,38*66
$GPGSA,A,3,30,13,05,14,20,07,22,15,18,08,,,1.0,0.4,0.8*3E
$GNGSA,A,3,71,72,73,81,,,,,,,,,1.0,0.4,0.8*2F
$GAGSA,A,3,105,113,124,125,131,,,,,,,,1.0,0.4,0.8*1B
$BDGSA,A,3,205,207,220,223,232,,,,,,,,1.0,0.4,0.8*1C
$GPRMC,155816.000,A,5147.9282,N,01021.0213,E,2.4,183.4,170923,,,A*62
$GPGGA,155817.000,5147.9273,N,01021.0210,E,1,24,0.4,588.7,M,47.4,M,,*5D
$GPVTG,195.0,T,,M,2.4,N,4.4,K,A*06
$GPGSV,3,1,10,05,56,242,32,07,34,065,43,08,11,048,28,13,58,290,32*76
$GPGSV,3,2,10,14,46,139,40,15,23,294,34,18,14,319,31,20,36,201,36*78
$GPGSV,3,3,10,22,33,158,41,30,64,071,43*71
$GLGSV,2,1,05,65,27,315,28,71,41,130,41,72,84,339,34,73,49,046,41*65
$GLGSV,2,2,05,81,14,344,34*58
$GAGSV,2,1,05,105,73,112,38,113,15,324,30,124,54,108,40,125,27,175,36*68
$GAGSV,2,2,05,131,27,046,39*63
$BDGSV,2,1,08,205,14,125,35,207,25,064,34,210,28,078,35,219,19,309,34*69
$BDGSV,2,2,08,220,66,281,36,223,50,064,44,232,46,153,40,237,64,188,38*66
$GPGSA,A,3,30,13,05,14,20,07,22,15,18,08,,,1.0,0.4,0.8*3E
$GNGSA,A,3,71,72,73,81,,,,,,,,,1.0,0.4,0.8*2F
$GAGSA,A,3,105,113,124,125,131,,,,,,,,1.0,0.4,0.8*1B
$BDGSA,A,3,205,207,220,223,232,,,,,,,,1.0,0.4,0.8*1C
$GPRMC,155817.000,A,5147.9273,N,01021.0210,E,2.4,195.0,170923,,,A*6D
$GPGGA,155818.000,5147.9265,N,01021.0210,E,1,24,0.4,588.7,M,47.4,M,,*55
$GPVTG,198.8,T,,M,2.3,N,4.3,K,A*03
$GPGSV,3,1,10,05,56,242,32,07,34,065,43,08,11,048,28,13,58,290,32*76
$GPGSV,3,2,10,14,46,139,40,15,23,294,34,18,14,319,31,20,36,201,36*78
$GPGSV,3,3,10,22,33,158,41,30,64,071,43*71
$GLGSV,2,1,05,65,27,315,28,71,40,131,41,72,85,340,34,73,49,046,41*6A
$GLGSV,2,2,05,81,14,344,34*58
$GAGSV,2,1,05,105,73,112,38,113,15,324,31,124,54,108,40,125,27,175,36*69
$GAGSV,2,2,05,131,27,046,39*63
$BDGSV,2,1,08,205,14,125,35,207,25,064,34,210,28,078,35,219,19,309,34*69
$BDGSV,2,2,08,220,66,281,36,223,50,064,44,232,46,153,40,237,64,188,38*66
$GPGSA,A,3,30,13,05,14,20,07,22,15,18,08,,,1.0,0.4,0.8*3E
$GNGSA,A,3,71,72,73,81,,,,,,,,,1.0,0.4,0.8*2F
$GAGSA,A,3,105,113,124,125,131,,,,,,,,1.0,0.4,0.8*1B
$BDGSA,A,3,205,207,220,223,232,,,,,,,,1.0,0.4,0.8*1C
$GPRMC,155818.000,A,5147.9265,N,01021.0210,E,2.3,198.8,170923,,,A*67
$GPGGA,155819.000,5147.9259,N,01021.0207,E,1,24,0.4,588.3,M,47.4,M,,*59
$GPVTG,196.7,T,,M,2.3,N,4.2,K,A*03
$GPGSV,3,1,10,05,56,242,32,07,34,065,43,08,11,048,28,13,58,290,32*76
$GPGSV,3,2,10,14,46,139,40,15,23,294,34,18,14,319,31,20,36,201,35*7B
$GPGSV,3,3,10,22,33,158,41,30,64,071,43*71
$GLGSV,2,1,05,65,27,315,28,71,40,131,41,72,85,340,34,73,49,046,41*6A
$GLGSV,2,2,05,81,14,344,33*5F
$GAGSV,2,1,05,105,73,112,38,113,15,324,31,124,54,108,40,125,27,175,35*6A
$GAGSV,2,2,05,131,27,046,39*63
$BDGSV,2,1,08,205,14,125,35,207,25,064,34,210,28,078,35,219,19,309,34*69
$BDGSV,2,2,08,220,66,281,35,223,50,064,44,232,46,153,40,237,64,188,38*65
$GPGSA,A,3,30,13,05,14,20,07,22,15,18,08,,,1.0,0.4,0.8*3E
$GNGSA,A,3,71,72,73,81,,,,,,,,,1.0,0.4,0.8*2F
$GAGSA,A,3,105,113,124,125,131,,,,,,,,1.0,0.4,0.8*1B
$BDGSA,A,3,205,207,220,223,232,,,,,,,,1.0,0.4,0.8*1C
$GPRMC,155819.000,A,5147.9259,N,01021.0207,E,2.3,196.7,170923,,,A*6E
$GPGGA,155820.000,5147.9252,N,01021.0206,E,1,24,0.4,588.4,M,47.4,M,,*5E
$GPVTG,191.4,T,,M,2.4,N,4.4,K,A*06
$GPGSV,3,1,10,05,56,242,31,07,34,065,43,08,11,048,28,13,58,290,32*75
$GPGSV,3,2,10,14,46,139,40,15,23,294,34,18,14,319,31,20,36,201,35*7B
$GPGSV,3,3,10,22,33,158,41,30,64,071,43*71
$GLGSV,2,1,05,65,27,315,28,71,40,131,41,72,85,340,34,73,49,046,41*6A
$GLGSV,2,2,05,81,14,344,33*5F
$GAGSV,2,1,05,105,73,112,38,113,15,324,31,124,54,108,40,125,27,175,35*6A
$GAGSV,2,2,05,131,27,046,39*63
$BDGSV,2,1,08,205,14,125,34,207,25,063,34,210,28,078,35,219,20,309,34*65
$BDGSV,2,2,08,220,67,281,35,223,50,064,44,232,46,153,40,237,64,188,38*64
$GPGSA,A,3,30,13,05,14,20,07,22,15,18,08,,,1.0,0.4,0.8*3E
$GNGSA,A,3,71,72,73,81,,,,,,,,,1.0,0.4,0.8*2F
$GAGSA,A,3,105,113,124,125,131,,,,,,,,1.0,0.4,0.8*1B
$BDGSA,A,3,205,207,220,223,232,,,,,,,,1.0,0.4,0.8*1C
$GPRMC,155820.000,A,5147.9252,N,01021.0206,E,2.4,191.4,170923,,,A*6D
$GPGGA,155821.000,5147.9246,N,01021.0204,E,1,24,0.4,588.0,M,47.4,M,,*5C
$GPVTG,189.7,T,,M,2.4,N,4.5,K,A*0D
$GPGSV,3,1,10,05,56,242,31,07,33,065,43,08,11,048,28,13,58,290,31*71
$GPGSV,3,2,10,14,46,139,40,15,23,294,34,18,14,319,31,20,36,201,36*78
$GPGSV,3,3,10,22,33,158,41,30,64,071,43*71
$GLGSV,2,1,05,65,27,315,28,71,40,131,41,72,85,340,33,73,49,046,41*6D
$GLGSV,2,2,05,81,14,344,33*5F
$GAGSV,2,1,05,105,73,112,38,113,15,324,31,124,54,108,40,125,27,175,35*6A
$GAGSV,2,2,05,131,27,046,39*63
$BDGSV,2,1,08,205,14,125,34,207,25,063,34,210,28,078,35,219,20,309,34*65
$BDGSV,2,2,08,220,67,281,35,223,50,064,45,232,46,153,40,237,64,188,37*6A
$GPGSA,A,3,30,13,05,14,20,07,22,15,18,08,,,1.0,0.4,0.8*3E
$GNGSA,A,3,71,72,73,81,,,,,,,,,1.0,0.4,0.8*2F
$GAGSA,A,3,105,113,124,125,131,,,,,,,,1.0,0.4,0.8*1B
$BDGSA,A,3,205,210,220,223,232,,,,,,,,1.0,0.4,0.8*1A
$GPRMC,155821.000,A,5147.9246,N,01021.0204,E,2.4,189.7,170923,,,A*61
$GPGGA,155822.000,5147.9240,N,01021.0200,E,1,23,0.6,587.7,M,47.4,M,,*50
$GPVTG,192.3,T,,M,2.5,N,4.6,K,A*01
$GPGSV,3,1,10,05,56,242,31,07,33,065,43,08,11,048,28,13,58,290,31*71
$GPGSV,3,2,10,14,46,139,40,15,23,294,34,18,14,319,31,20,36,201,36*78
$GPGSV,3,3,10,22,33,158,41,30,64,071,42*70
$GLGSV,2,1,05,65,27,315,28,71,40,131,40,72,85,340,33,73,49,046,42*6F
$GLGSV,2,2,05,81,14,344,33*5F
$GAGSV,2,1,05,105,73,112,38,113,15,324,31,124,54,108,40,125,27,175,35*6A
$GAGSV,2,2,05,131,27,046,39*63
$BDGSV,2,1,08,205,14,125,34,207,25,063,34,210,28,078,35,219,20,309,34*65
$BDGSV,2,2,08,220,67,281,35,223,50,064,45,232,46,153,40,237,64,188,37*6A
$GPGSA,A,3,30,13,05,14,20,07,22,15,18,,,,1.0,0.6,0.8*34
$GNGSA,A,3,71,72,73,81,,,,,,,,,1.0,0.6,0.8*2D
$GAGSA,A,3,105,113,124,125,131,,,,,,,,1.0,0.6,0.8*19
$BDGSA,A,3,205,210,220,223,232,,,,,,,,1.0,0.6,0.8*18
$GPRMC,155822.000,A,5147.9240,N,01021.0200,E,2.5,192.3,170923,,,A*6F
$GPGGA,155823.000,5147.9233,N,01021.0196,E,1,24,0.4,587.9,M,47.4,M,,*52
$GPVTG,198.2,T,,M,2.3,N,4.2,K,A*08
$GPGSV,3,1,10,05,56,242,31,07,33,065,43,08,11,048,28,13,58,290,31*71
$GPGSV,3,2,10,14,46,139,40,15,23,294,33,18,14,319,31,20,36,201,36*7F
$GPGSV,3,3,10,22,33,158,41,30,64,071,42*70
$GLGSV,2,1,05,65,27,315,28,71,40,131,40,72,85,340,33,73,49,046,42*6F
$GLGSV,2,2,05,81,14,344,32*5E
$GAGSV,2,1,05,105,73,112,38,113,15,324,31,124,54,108,40,125,27,175,35*6A
$GAGSV,2,2,05,131,27,046,39*63
$BDGSV,2,1,08,205,14,125,34,207,25,063,34,210,28,078,35,219,20,309,34*65
$BDGSV,2,2,08,220,67,281,34,223,50,064,45,232,46,153,39,237,64,188,36*64
$GPGSA,A,3,30,13,05,14,20,07,22,15,18,08,,,1.0,0.4,0.8*3E
$GNGSA,A,3,71,72,73,81,,,,,,,,,1.0,0.4,0.8*2F
$GAGSA,A,3,105,113,124,125,131,,,,,,,,1.0,0.4,0.8*1B
$BDGSA,A,3,205,210,220,223,232,,,,,,,,1.0,0.4,0.8*1A
$GPRMC,155823.000,A,5147.9233,N,01021.0196,E,2.3,198.2,170923,,,A*6B
$GPGGA,155824.000,5147.9227,N,01021.0191,E,1,24,0.4,587.8,M,47.4,M,,*56
$GPVTG,201.9,T,,M,2.3,N,4.3,K,A*01
$GPGSV,3,1,10,05,56,242,31,07,33,065,43,08,11,048,28,13,58,290,31*71
$GPGSV,3,2,10,14,46,139,40,15,23,294,33,18,14,319,31,20,36,201,36*7F
$GPGSV,3,3,10,22,33,158,41,30,64,071,42*70
$GLGSV,2,1,05,65,27,315,28,71,40,131,40,72,85,340,33,73,49,046,42*6F
$GLGSV,2,2,05,81,14,344,32*5E
$GAGSV,2,1,05,105,73,112,38,113,15,324,30,124,54,108,40,125,27,175,35*6B
$GAGSV,2,2,05,131,27,046,39*63
$BDGSV,2,1,08,205,14,125,34,207,25,063,35,210,28,078,35,219,20,309,34*64
$BDGSV,2,2,08,220,67,281,34,223,50,064,46,232,46,153,39,237,64,188,36*67
$GPGSA,A,3,30,13,05,14,20,07,22,15,18,08,,,1.0,0.4,0.8*3E
$GNGSA,A,3,71,72,73,81,,,,,,,,,1.0,0.4,0.8*2F
$GAGSA,A,3,105,113,124,125,131,,,,,,,,1.0,0.4,0.8*1B
$BDGSA,A,3,205,210,220,223,232,,,,,,,,1.0,0.4,0.8*1A
$GPRMC,155824.000,A,5147.9227,N,01021.0191,E,2.3,201.9,170923,,,A*66
$GPGGA,155825.000,5147.9220,N,01021.0180,E,1,24,0.4,588.1,M,47.4,M,,*56
$GPVTG,208.2,T,,M,2.7,N,5.1,K,A*04
$GPGSV,3,1,10,05,56,242,32,07,33,065,43,08,11,048,28,13,58,290,31*72
$GPGSV,3,2,10,14,46,139,40,15,23,294,32,18,14,319,31,20,36,201,36*7E
$GPGSV,3,3,10,22,34,158,41,30,64,071,42*77
$GLGSV,2,1,05,65,27,315,28,71,40,131,40,72,85,340,33,73,49,046,42*6F
$GLGSV,2,2,05,81,14,344,32*5E
$GAGSV,2,1,05,105,73,112,37,113,15,324,30,124,54,108,39,125,27,175,36*69
$GAGSV,2,2,05,131,27,046,39*63
$BDGSV,2,1,08,205,14,125,34,207,25,063,35,210,28,078,35,219,20,309,34*64
$BDGSV,2,2,08,220,67,281,34,223,50,064,46,232,46,153,39,237,64,188,36*67
$GPGSA,A,3,30,13,05,14,20,22,07,15,18,08,,,1.0,0.4,0.8*3E
$GNGSA,A,3,71,72,73,81,,,,,,,,,1.0,0.4,0.8*2F
$GAGSA,A,3,105,113,124,125,131,,,,,,,,1.0,0.4,0.8*1B
$BDGSA,A,3,205,210,220,223,232,,,,,,,,1.0,0.4,0.8*1A
$GPRMC,155825.000,A,5147.9220,N,01021.0180,E,2.7,208.2,170923,,,A*66
$GPGGA,155826.000,5147.9214,N,01021.0167,E,1,23,0.6,588.0,M,47.4,M,,*5F
$GPVTG,217.0,T,,M,2.4,N,4.4,K,A*0F
$GPGSV,3,1,10,05,56,242,32,07,33,065,43,08,11,048,27,13,58,290,31*7D
$GPGSV,3,2,10,14,46,139,40,15,23,294,32,18,14,319,31,20,36,201,37*7F
$GPGSV,3,3,10,22,34,158,40,30,64,071,42*76
$GLGSV,2,1,05,65,27,315,28,71,40,131,39,72,85,340,33,73,49,046,41*62
$GLGSV,2,2,05,81,14,344,32*5E
$GAGSV,2,1,05,105,73,112,37,113,15,324,30,124,54,108,39,125,27,175,36*69
$GAGSV,2,2,05,131,27,046,39*63
$BDGSV,2,1,08,205,14,125,34,207,25,063,35,210,28,078,35,219,20,309,34*64
$BDGSV,2,2,08,220,67,281,34,223,50,064,46,232,46,153,39,237,64,188,36*67
$GPGSA,A,3,30,13,05,14,20,22,07,18,08,,,,1.0,0.6,0.8*38
$GNGSA,A,3,71,72,73,81,,,,,,,,,1.0,0.6,0.8*2D
$GAGSA,A,3,105,113,124,125,131,,,,,,,,1.0,0.6,0.8*19
$BDGSA,A,3,205,210,220,223,232,,,,,,,,1.0,0.6,0.8*18
$GPRMC,155826.000,A,5147.9214,N,01021.0167,E,2.4,217.0,170923,,,A*64
$GPGGA,155827.000,5147.9210,N,01021.0155,E,1,22,0.6,588.0,M,47.4,M,,*5A
$GPVTG,237.7,T,,M,2.3,N,4.3,K,A*0A
$GPGSV,3,1,10,05,56,242,32,07,33,065,43,08,11,048,27,13,58,290,31*7D
$GPGSV,3,2,10,14,46,139,40,15,23,294,31,18,14,319,31,20,36,201,37*7C
$GPGSV,3,3,10,22,34,158,41,30,64,071,42*77
$GLGSV,2,1,05,65,27,315,28,71,40,131,39,72,85,340,33,73,49,046,41*62
$GLGSV,2,2,05,81,14,344,32*5E
$GAGSV,2,1,05,105,73,112,37,113,15,324,30,124,54,108,39,125,27,175,36*69
$GAGSV,2,2,05,131,27,046,39*63
$BDGSV,2,1,08,205,14,125,34,207,25,063,35,210,28,078,36,219,20,309,34*67
$BDGSV,2,2,08,220,67,281,34,223,50,064,46,232,46,153,39,237,64,188,35*64
$GPGSA,A,3,30,13,05,14,20,22,07,15,18,,,,1.0,0.6,0.8*34
$GNGSA,A,3,71,72,73,,,,,,,,,,1.0,0.6,0.8*24
$GAGSA,A,3,105,113,124,125,131,,,,,,,,1.0,0.6,0.8*19
$BDGSA,A,3,205,210,220,223,232,,,,,,,,1.0,0.6,0.8*18
$GPRMC,155827.000,A,5147.9210,N,01021.0155,E,2.3,237.7,170923,,,A*62
$GPGGA,155828.000,5147.9207,N,01021.0136,E,1,24,0.4,587.3,M,47.4,M,,*5E
$GPVTG,259.2,T,,M,2.6,N,4.9,K,A*08
$GPGSV,3,1,10,05,56,242,33,07,33,065,43,08,11,048,27,13,58,290,37*7A
$GPGSV,3,2,10,14,46,139,40,15,23,294,31,18,14,319,31,20,36,201,40*7C
$GPGSV,3,3,10,22,34,158,41,30,64,071,42*77
$GLGSV,2,1,05,65,27,315,28,71,40,131,39,72,85,340,33,73,49,046,40*63
$GLGSV,2,2,05,81,14,344,31*5D
$GAGSV,2,1,05,105,73,112,37,113,15,324,30,124,54,108,38,125,27,175,36*68
$GAGSV,2,2,05,131,27,046,38*62
$BDGSV,2,1,08,205,14,125,34,207,25,063,35,210,28,078,36,219,20,309,33*60
$BDGSV,2,2,08,220,67,281,34,223,50,064,45,232,46,153,39,237,64,188,35*67
$GPGSA,A,3,30,13,05,14,20,22,07,15,18,08,,,1.0,0.4,0.8*3E
$GNGSA,A,3,71,72,73,81,,,,,,,,,1.0,0.4,0.8*2F
$GAGSA,A,3,105,113,124,125,131,,,,,,,,1.0,0.4,0.8*1B
$BDGSA,A,3,205,210,220,223,232,,,,,,,,1.0,0.4,0.8*1A
$GPRMC,155828.000,A,5147.9207,N,01021.0136,E,2.6,259.2,170923,,,A*66
$GPGGA,155829.000,5147.9208,N,01021.0118,E,1,24,0.4,587.8,M,47.4,M,,*57
$GPVTG,270.0,T,,M,2.3,N,4.2,K,A*0F
$GPGSV,3,1,10,05,56,242,33,07,33,065,43,08,11,048,27,13,58,290,37*7A
$GPGSV,3,2,10,14,46,139,40,15,23,294,31,18,14,319,31,20,36,201,41*7D
$GPGSV,3,3,10,22,34,158,42,30,64,071,41*77
$GLGSV,2,1,05,65,27,315,27,71,40,131,39,72,85,340,32,73,49,046,39*63
$GLGSV,2,2,05,81,14,344,31*5D
$GAGSV,2,1,05,105,73,112,37,113,15,324,30,124,54,108,38,125,27,175,36*68
$GAGSV,2,2,05,131,27,046,38*62
$BDGSV,2,1,08,205,14,125,34,207,25,063,35,210,28,078,36,219,20,309,32*61
$BDGSV,2,2,08,220,67,281,34,223,50,064,45,232,46,153,40,237,64,188,39*65
$GPGSA,A,3,30,13,05,14,20,22,07,15,18,08,,,1.0,0.4,0.8*3E
$GNGSA,A,3,71,72,73,81,,,,,,,,,1.0,0.4,0.8*2F
$GAGSA,A,3,105,113,124,125,131,,,,,,,,1.0,0.4,0.8*1B
$BDGSA,A,3,205,210,220,223,232,,,,,,,,1.0,0.4,0.8*1A
$GPRMC,155829.000,A,5147.9208,N,01021.0118,E,2.3,270.0,170923,,,A*68
$GPGGA,155830.000,5147.9208,N,01021.0102,E,1,23,0.4,588.3,M,47.4,M,,*57
$GPVTG,268.5,T,,M,2.5,N,4.6,K,A*01
$GPGSV,3,1,10,05,56,242,37,07,33,065,42,08,11,048,27,13,58,290,37*7F
$GPGSV,3,2,10,14,46,139,40,15,23,294,31,18,14,319,31,20,36,201,42*7E
$GPGSV,3,3,10,22,34,158,43,30,64,071,40*77
$GLGSV,2,1,05,65,27,315,27,71,40,131,39,72,85,340,32,73,49,046,39*63
$GLGSV,2,2,05,81,14,344,31*5D
$GAGSV,2,1,05,105,73,112,37,113,15,324,30,124,54,108,38,125,27,175,36*68
$GAGSV,2,2,05,131,27,046,37*6D
$BDGSV,2,1,08,205,14,125,33,207,25,063,35,210,28,078,36,219,20,309,32*66
$BDGSV,2,2,08,220,67,281,34,223,50,064,44,232,46,153,41,237,64,188,42*69
$GPGSA,A,3,30,13,05,14,20,22,07,15,18,08,,,1.0,0.4,0.8*3E
$GNGSA,A,3,71,72,73,,,,,,,,,,1.0,0.4,0.8*26
$GAGSA,A,3,105,113,124,125,131,,,,,,,,1.0,0.4,0.8*1B
$BDGSA,A,3,205,210,220,223,232,,,,,,,,1.0,0.4,0.8*1A
$GPRMC,155830.000,A,5147.9208,N,01021.0102,E,2.5,268.5,170923,,,A*61
$GPGGA,155831.000,5147.9207,N,01021.0085,E,1,23,0.4,588.5,M,47.4,M,,*51
$GPVTG,271.4,T,,M,2.3,N,4.2,K,A*0A
$GPGSV,3,1,10,05,56,242,41,07,33,065,41,08,11,048,27,13,58,290,37*7D
$GPGSV,3,2,10,14,46,139,45,15,23,294,31,18,14,319,31,20,36,201,42*7B
$GPGSV,3,3,10,22,34,158,44,30,64,071,40*70
$GLGSV,2,1,05,65,27,315,27,71,40,131,40,72,85,340,32,73,49,046,38*6C
$GLGSV,2,2,05,81,14,344,31*5D
$GAGSV,2,1,05,105,73,112,36,113,15,324,30,124,54,108,38,125,27,175,36*69
$GAGSV,2,2,05,131,27,046,36*6C
$BDGSV,2,1,08,205,14,125,33,207,25,063,35,210,28,078,36,219,20,309,31*65
$BDGSV,2,2,08,220,67,281,34,223,50,064,43,232,46,153,41,237,64,188,42*6E
$GPGSA,A,3,30,13,05,14,20,22,07,15,18,08,,,1.0,0.4,0.8*3E
$GNGSA,A,3,71,72,73,,,,,,,,,,1.0,0.4,0.8*26
$GAGSA,A,3,105,113,124,125,131,,,,,,,,1.0,0.4,0.8*1B
$BDGSA,A,3,205,210,220,223,232,,,,,,,,1.0,0.4,0.8*1A
$GPRMC,155831.000,A,5147.9207,N,01021.0085,E,2.3,271.4,170923,,,A*6E
$GPGGA,155832.000,5147.9206,N,01021.0069,E,1,23,0.6,588.7,M,47.4,M,,*51
$GPVTG,263.2,T,,M,2.4,N,4.5,K,A*0F
$GPGSV,3,1,10,05,56,242,40,07,33,065,40,08,11,048,27,13,58,290,36*7C
$GPGSV,3,2,10,14,46,139,45,15,23,294,31,18,14,319,31,20,36,201,42*7B
$GPGSV,3,3,10,22,34,158,44,30,64,071,39*7E
$GLGSV,2,1,05,65,27,315,27,71,40,131,47,72,85,340,32,73,49,046,37*64
$GLGSV,2,2,05,81,14,344,31*5D
$GAGSV,2,1,05,105,73,112,37,113,15,324,30,124,54,108,45,125,27,175,37*63
$GAGSV,2,2,05,131,27,046,36*6C
$BDGSV,2,1,08,205,14,125,33,207,25,063,34,210,28,078,35,219,20,309,31*67
$BDGSV,2,2,08,220,67,281,34,223,50,064,42,232,46,153,41,237,64,188,42*6F
$GPGSA,A,3,30,13,05,14,20,22,07,15,18,,,,1.0,0.6,0.8*34
$GNGSA,A,3,71,72,73,81,,,,,,,,,1.0,0.6,0.8*2D
$GAGSA,A,3,105,113,124,125,131,,,,,,,,1.0,0.6,0.8*19
$BDGSA,A,3,205,210,220,223,232,,,,,,,,1.0,0.6,0.8*18
$GPRMC,155832.000,A,5147.9206,N,01021.0069,E,2.4,263.2,170923,,,A*6C
$GPGGA,155833.000,5147.9205,N,01021.0053,E,1,23,0.6,588.6,M,47.4,M,,*5B
$GPVTG,260.5,T,,M,2.4,N,4.4,K,A*0A
$GPGSV,3,1,10,05,56,242,40,07,33,065,39,08,11,048,27,13,58,290,36*72
$GPGSV,3,2,10,14,46,139,46,15,23,294,38,18,14,319,31,20,36,201,42*71
$GPGSV,3,3,10,22,34,158,44,30,64,071,39*7E
$GLGSV,2,1,05,65,27,315,27,71,40,131,47,72,85,340,32,73,49,046,36*65
$GLGSV,2,2,05,81,14,344,30*5C
$GAGSV,2,1,05,105,73,112,37,113,15,324,30,124,54,108,45,125,27,175,37*63
$GAGSV,2,2,05,131,27,046,35*6F
$BDGSV,2,1,08,205,14,125,33,207,25,063,34,210,28,078,34,219,20,309,31*66
$BDGSV,2,2,08,220,67,281,34,223,50,064,42,232,46,153,41,237,64,188,42*6F
$GPGSA,A,3,30,13,05,14,20,22,07,15,18,,,,1.0,0.6,0.8*34
$GNGSA,A,3,71,72,73,81,,,,,,,,,1.0,0.6,0.8*2D
$GAGSA,A,3,105,113,124,125,131,,,,,,,,1.0,0.6,0.8*19
$BDGSA,A,3,205,210,220,223,232,,,,,,,,1.0,0.6,0.8*18
$GPRMC,155833.000,A,5147.9205,N,01021.0053,E,2.4,260.5,170923,,,A*63
$GPGGA,155834.000,5147.9204,N,01021.0037,E,1,23,0.4,588.3,M,47.4,M,,*58
$GPVTG,262.1,T,,M,2.4,N,4.5,K,A*0D
$GPGSV,3,1,10,05,56,242,40,07,33,065,39,08,11,048,27,13,58,290,36*72
$GPGSV,3,2,10,14,46,139,46,15,23,294,38,18,14,319,31,20,36,201,41*72
$GPGSV,3,3,10,22,34,158,44,30,64,071,38*7F
$GLGSV,2,1,05,65,27,315,28,71,40,131,47,72,85,340,32,73,49,046,36*6A
$GLGSV,2,2,05,81,14,344,30*5C
$GAGSV,2,1,05,105,73,112,38,113,15,324,30,124,54,108,45,125,27,175,37*6C
$GAGSV,2,2,05,131,27,046,35*6F
$BDGSV,2,1,08,205,14,125,33,207,25,063,33,210,28,078,33,219,20,309,31*66
$BDGSV,2,2,08,220,67,281,34,223,50,064,41,232,46,153,42,237,64,188,42*6F
$GPGSA,A,3,30,13,05,14,20,22,07,15,18,08,,,1.0,0.4,0.8*3E
$GNGSA,A,3,71,72,73,,,,,,,,,,1.0,0.4,0.8*26
$GAGSA,A,3,105,113,124,125,131,,,,,,,,1.0,0.4,0.8*1B
$BDGSA,A,3,205,210,220,223,232,,,,,,,,1.0,0.4,0.8*1A
$GPRMC,155834.000,A,5147.9204,N,01021.0037,E,2.4,262.1,170923,,,A*61
$GPGGA,155835.000,5147.9204,N,01021.0020,E,1,23,0.4,588.2,M,47.4,M,,*5E
$GPVTG,263.8,T,,M,2.6,N,4.8,K,A*0A
$GPGSV,3,1,10,05,56,242,40,07,33,065,38,08,11,048,27,13,58,290,35*70
$GPGSV,3,2,10,14,46,139,46,15,23,294,38,18,14,319,37,20,36,201,41*74
$GPGSV,3,3,10,22,34,158,44,30,64,071,38*7F
$GLGSV,2,1,05,65,27,315,33,71,40,131,47,72,85,340,32,73,49,046,35*63
$GLGSV,2,2,05,81,14,344,30*5C
$GAGSV,2,1,05,105,73,112,38,113,15,324,31,124,54,108,45,125,27,175,37*6D
$GAGSV,2,2,05,131,27,046,34*6E
$BDGSV,2,1,08,205,14,125,33,207,25,063,33,210,28,078,33,219,20,309,31*66
$BDGSV,2,2,08,220,67,281,34,223,50,064,40,232,46,153,42,237,64,188,42*6E
$GPGSA,A,3,30,13,05,14,20,22,07,15,18,08,,,1.0,0.4,0.8*3E
$GNGSA,A,3,71,72,73,,,,,,,,,,1.0,0.4,0.8*26
$GAGSA,A,3,105,113,124,125,131,,,,,,,,1.0,0.4,0.8*1B
$BDGSA,A,3,205,210,220,223,232,,,,,,,,1.0,0.4,0.8*1A
$GPRMC,155835.000,A,5147.9204,N,01021.0020,E,2.6,263.8,170923,,,A*6C
$GPGGA,155836.000,5147.9204,N,01021.0006,E,1,22,0.6,588.0,M,47.4,M,,*58
$GPVTG,266.1,T,,M,2.3,N,4.3,K,A*08
$GPGSV,3,1,10,05,56,242,40,07,33,065,37,08,11,048,26,13,58,290,35*7E
$GPGSV,3,2,10,14,46,139,46,15,23,294,38,18,14,319,37,20,36,201,41*74
$GPGSV,3,3,10,22,34,158,44,30,64,071,38*7F
$GLGSV,2,1,05,65,27,315,33,71,40,131,47,72,85,340,31,73,49,046,35*60
$GLGSV,2,2,05,81,14,344,30*5C
$GAGSV,2,1,05,105,73,112,38,113,15,324,37,124,54,108,44,125,27,175,38*65
$GAGSV,2,2,05,131,27,046,34*6E
$BDGSV,2,1,08,205,14,125,31,207,25,063,32,210,28,078,32,219,20,309,32*67
$BDGSV,2,2,08,220,67,281,35,223,50,064,40,232,46,153,42,237,64,188,42*6F
$GPGSA,A,3,30,13,05,14,20,22,07,15,18,,,,1.2,0.6,1.0*3F
$GNGSA,A,3,71,72,73,81,,,,,,,,,1.2,0.6,1.0*26
$GAGSA,A,3,105,113,124,125,131,,,,,,,,1.2,0.6,1.0*12
$BDGSA,A,3,210,220,223,232,,,,,,,,,1.2,0.6,1.0*24
$GPRMC,155836.000,A,5147.9204,N,01021.0006,E,2.3,266.1,170923,,,A*62
$GPGGA,155837.000,5147.9202,N,01020.9995,E,1,23,0.6,588.1,M,47.4,M,,*54
$GPVTG,258.8,T,,M,2.7,N,5.0,K,A*0A
$GPGSV,3,1,10,05,56,242,40,07,33,065,37,08,11,048,26,13,58,290,36*7D
$GPGSV,3,2,10,14,46,139,45,15,23,294,38,18,14,319,37,20,36,201,41*77
$GPGSV,3,3,10,22,34,158,44,30,64,071,38*7F
$GLGSV,2,1,05,65,27,315,33,71,40,131,47,72,85,340,31,73,49,046,34*61
$GLGSV,2,2,05,81,14,344,36*5A
$GAGSV,2,1,05,105,73,112,38,113,15,324,37,124,54,108,44,125,27,175,38*65
$GAGSV,2,2,05,131,27,046,33*69
$BDGSV,2,1,08,205,14,125,30,207,25,063,32,210,28,078,32,219,20,309,32*66
$BDGSV,2,2,08,220,67,281,36,223,50,064,39,232,46,153,42,237,64,188,42*62
$GPGSA,A,3,30,13,05,14,20,22,07,15,18,,,,1.0,0.6,1.0*3D
$GNGSA,A,3,65,71,72,73,81,,,,,,,,1.0,0.6,1.0*27
$GAGSA,A,3,105,113,124,125,131,,,,,,,,1.0,0.6,1.0*10
$BDGSA,A,3,210,220,223,232,,,,,,,,,1.0,0.6,1.0*26
$GPRMC,155837.000,A,5147.9202,N,01020.9995,E,2.7,258.8,170923,,,A*6E
$GPGGA,155838.000,5147.9202,N,01020.9985,E,1,22,0.6,587.9,M,47.4,M,,*5C
$GPVTG,257.6,T,,M,2.8,N,5.1,K,A*05
$GPGSV,3,1,10,05,56,242,40,07,33,065,36,08,11,048,26,13,58,290,36*7C
$GPGSV,3,2,10,14,46,139,45,15,23,294,37,18,14,319,36,20,36,201,41*79
$GPGSV,3,3,10,22,34,158,44,30,64,071,38*7F
$GLGSV,2,1,05,65,27,315,33,71,40,131,46,72,85,340,31,73,49,046,34*60
$GLGSV,2,2,05,81,14,344,36*5A
$GAGSV,2,1,05,105,73,112,38,113,15,324,37,124,54,108,44,125,27,175,44*6E
$GAGSV,2,2,05,131,27,046,33*69
$BDGSV,2,1,08,205,14,125,28,207,25,063,31,210,28,078,31,219,20,309,32*6F
$BDGSV,2,2,08,220,67,281,36,223,50,064,38,232,46,153,42,237,64,188,42*63
$GPGSA,A,3,30,13,05,14,20,22,07,15,18,,,,1.2,0.6,1.0*3F
$GNGSA,A,3,65,71,72,73,81,,,,,,,,1.2,0.6,1.0*25
$GAGSA,A,3,105,113,124,125,,,,,,,,,1.2,0.6,1.0*21
$BDGSA,A,3,210,220,223,232,,,,,,,,,1.2,0.6,1.0*24
$GPRMC,155838.000,A,5147.9202,N,01020.9985,E,2.8,257.6,170923,,,A*6E
$GPGGA,155839.000,5147.9200,N,01020.9973,E,1,24,0.4,588.0,M,47.4,M,,*54
$GPVTG,259.2,T,,M,2.9,N,5.3,K,A*0C
$GPGSV,3,1,10,05,56,242,40,07,33,065,36,08,11,048,26,13,58,290,37*7D
$GPGSV,3,2,10,14,46,139,44,15,23,294,37,18,14,319,36,20,36,201,41*78
$GPGSV,3,3,10,22,34,158,43,30,64,071,37*77
$GLGSV,2,1,05,65,27,315,33,71,40,131,46,72,85,340,31,73,49,046,33*67
$GLGSV,2,2,05,81,14,344,36*5A
$GAGSV,2,1,05,105,73,112,38,113,15,324,37,124,54,108,44,125,27,175,44*6E
$GAGSV,2,2,05,131,27,046,32*68
$BDGSV,2,1,08,205,14,125,27,207,25,063,31,210,28,078,31,219,20,309,32*60
$BDGSV,2,2,08,220,67,281,36,223,50,064,38,232,46,153,42,237,64,188,42*63
$GPGSA,A,3,30,13,05,14,20,22,07,15,18,08,,,1.0,0.4,0.8*3E
$GNGSA,A,3,65,71,72,73,81,,,,,,,,1.0,0.4,0.8*2C
$GAGSA,A,3,105,113,124,125,131,,,,,,,,1.0,0.4,0.8*1B
$BDGSA,A,3,210,220,223,232,,,,,,,,,1.0,0.4,0.8*2D
$GPRMC,155839.000,A,5147.9200,N,01020.9973,E,2.9,259.2,170923,,,A*6F
$GPGGA,155840.000,5147.9198,N,01020.9958,E,1,24,0.4,587.7,M,47.4,M,,*59
$GPVTG,262.1,T,,M,2.8,N,5.2,K,A*07
$GPGSV,3,1,10,05,56,242,39,07,33,065,36,08,11,048,26,13,58,290,37*73
$GPGSV,3,2,10,14,46,139,44,15,23,294,37,18,14,319,36,20,36,201,40*79
$GPGSV,3,3,10,22,34,158,43,30,64,071,37*77
$GLGSV,2,1,05,65,27,315,33,71,40,131,46,72,85,340,31,73,49,046,33*67
$GLGSV,2,2,05,81,14,344,36*5A
$GAGSV,2,1,05,105,73,112,38,113,15,324,36,124,54,108,44,125,27,175,44*6F
$GAGSV,2,2,05,131,27,046,32*68
$BDGSV,2,1,08,205,14,125,25,207,25,063,30,210,28,078,31,219,20,309,32*63
$BDGSV,2,2,08,220,67,281,37,223,50,064,38,232,46,153,42,237,64,188,42*62
$GPGSA,A,3,30,13,05,14,20,22,07,15,18,08,,,1.0,0.4,0.8*3E
$GNGSA,A,3,65,71,72,73,81,,,,,,,,1.0,0.4,0.8*2C
$GAGSA,A,3,105,113,124,125,131,,,,,,,,1.0,0.4,0.8*1B
$BDGSA,A,3,210,220,223,232,,,,,,,,,1.0,0.4,0.8*2D
$GPRMC,155840.000,A,5147.9198,N,01020.9958,E,2.8,262.1,170923,,,A*60
$GPGGA,155841.000,5147.9199,N,01020.9946,E,1,22,0.6,587.9,M,47.4,M,,*5C
$GPVTG,265.9,T,,M,2.8,N,5.2,K,A*08
$GPGSV,3,1,10,05,56,242,39,07,33,065,35,08,11,048,26,13,58,290,37*70
$GPGSV,3,2,10,14,46,139,44,15,23,294,37,18,14,319,35,20,36,201,40*7A
$GPGSV,3,3,10,22,34,158,43,30,64,071,37*77
$GLGSV,2,1,05,65,27,315,33,71,40,131,45,72,85,340,31,73,49,046,33*64
$GLGSV,2,2,05,81,14,344,36*5A
$GAGSV,2,1,05,105,73,112,38,113,15,324,35,124,54,108,44,125,27,175,44*6C
$GAGSV,2,2,05,131,27,046,31*6B
$BDGSV,2,1,08,205,14,125,24,207,25,063,30,210,28,078,30,219,20,309,32*63
$BDGSV,2,2,08,220,67,281,38,223,50,064,37,232,46,153,42,237,64,188,42*62
$GPGSA,A,3,30,13,05,14,20,22,07,15,18,,,,1.2,0.6,1.0*3F
$GNGSA,A,3,65,71,72,73,81,,,,,,,,1.2,0.6,1.0*25
$GAGSA,A,3,105,113,124,125,,,,,,,,,1.2,0.6,1.0*21
$BDGSA,A,3,210,220,223,232,,,,,,,,,1.2,0.6,1.0*24
$GPRMC,155841.000,A,5147.9199,N,01020.9946,E,2.8,265.9,170923,,,A*60
$GPGGA,155842.000,5147.9199,N,01020.9930,E,1,23,0.6,588.0,M,47.4,M,,*59
$GPVTG,265.7,T,,M,2.6,N,4.8,K,A*03
$GPGSV,3,1,10,05,56,242,39,07,33,065,35,08,11,048,25,13,58,290,37*73
$GPGSV,3,2,10,14,46,139,43,15,23,294,37,18,14,319,35,20,36,201,41*7C
$GPGSV,3,3,10,22,34,158,43,30,64,071,37*77
$GLGSV,2,1,05,65,27,315,33,71,40,131,45,72,85,340,31,73,49,046,32*65
$GLGSV,2,2,05,81,14,344,36*5A
$GAGSV,2,1,05,105,73,112,38,113,15,324,35,124,54,108,44,125,27,175,43*6B
$GAGSV,2,2,05,131,27,046,31*6B
$BDGSV,2,1,08,205,14,125,22,207,25,063,30,210,28,078,30,219,20,309,32*65
$BDGSV,2,2,08,220,67,281,38,223,50,064,37,232,46,153,42,237,64,188,41*61
$GPGSA,A,3,30,13,05,14,20,22,07,15,18,,,,1.0,0.6,1.0*3D
$GNGSA,A,3,65,71,72,73,81,,,,,,,,1.0,0.6,1.0*27
$GAGSA,A,3,105,113,124,125,131,,,,,,,,1.0,0.6,1.0*10
$BDGSA,A,3,210,220,223,232,,,,,,,,,1.0,0.6,1.0*26
$GPRMC,155842.000,A,5147.9199,N,01020.9930,E,2.6,265.7,170923,,,A*62
$GPGGA,155843.000,5147.9201,N,01020.9914,E,1,23,0.6,587.6,M,47.4,M,,*55
$GPVTG,268.1,T,,M,2.6,N,4.8,K,A*08
$GPGSV,3,1,10,05,56,242,39,07,33,065,37,08,11,048,25,13,58,290,37*71
$GPGSV,3,2,10,14,46,139,43,15,23,294,37,18,14,319,35,20,36,201,42*7F
$GPGSV,3,3,10,22,34,158,43,30,64,071,37*77
$GLGSV,2,1,05,65,27,315,33,71,40,131,45,72,85,340,31,73,49,046,32*65
$GLGSV,2,2,05,81,14,344,36*5A
$GAGSV,2,1,05,105,73,112,38,113,15,324,34,124,54,108,44,125,27,175,43*6A
$GAGSV,2,2,05,131,27,046,30*6A
$BDGSV,2,1,08,205,14,125,21,207,25,063,29,210,28,078,30,219,20,309,32*6E
$BDGSV,2,2,08,220,67,281,38,223,50,064,37,232,46,153,42,237,64,188,41*61
$GPGSA,A,3,30,13,05,14,20,22,07,15,18,,,,1.0,0.6,1.0*3D
$GNGSA,A,3,65,71,72,73,81,,,,,,,,1.0,0.6,1.0*27
$GAGSA,A,3,105,113,124,125,131,,,,,,,,1.0,0.6,1.0*10
$BDGSA,A,3,210,220,223,232,,,,,,,,,1.0,0.6,1.0*26
$GPRMC,155843.000,A,5147.9201,N,01020.9914,E,2.6,268.1,170923,,,A*6C
$GPGGA,155844.000,5147.9201,N,01020.9901,E,1,24,0.4,587.4,M,47.4,M,,*51
$GPVTG,267.6,T,,M,2.6,N,4.8,K,A*00
$GPGSV,3,1,10,05,56,242,39,07,33,065,37,08,11,048,25,13,58,290,37*71
$GPGSV,3,2,10,14,46,139,43,15,23,294,37,18,14,319,35,20,36,201,42*7F
$GPGSV,3,3,10,22,34,158,43,30,64,071,37*77
$GLGSV,2,1,05,65,27,315,33,71,40,131,45,72,85,340,31,73,49,046,32*65
$GLGSV,2,2,05,81,14,344,36*5A
$GAGSV,2,1,05,105,73,112,38,113,15,324,34,124,54,108,44,125,27,175,43*6A
$GAGSV,2,2,05,131,27,046,30*6A
$BDGSV,2,1,08,205,14,125,19,207,25,063,29,210,28,078,30,219,20,309,32*65
$BDGSV,2,2,08,220,67,281,38,223,50,064,37,232,46,153,42,237,64,188,41*61
$GPGSA,A,3,30,13,05,14,20,22,07,15,18,08,,,1.0,0.4,0.8*3E
$GNGSA,A,3,65,71,72,73,81,,,,,,,,1.0,0.4,0.8*2C
$GAGSA,A,3,105,113,124,125,131,,,,,,,,1.0,0.4,0.8*1B
$BDGSA,A,3,210,220,223,232,,,,,,,,,1.0,0.4,0.8*2D
$GPRMC,155844.000,A,5147.9201,N,01020.9901,E,2.6,267.6,170923,,,A*67
$GPGGA,155845.000,5147.9201,N,01020.9887,E,1,24,0.4,587.0,M,47.4,M,,*5B
$GPVTG,268.1,T,,M,2.4,N,4.4,K,A*06
$GPGSV,3,1,10,05,56,242,39,07,33,065,37,08,11,048,25,13,58,290,38*7E
$GPGSV,3,2,10,14,46,139,43,15,23,294,38,18,14,319,34,20,36,201,42*71
$GPGSV,3,3,10,22,34,158,43,30,64,071,37*77
$GLGSV,2,1,05,65,27,315,32,71,40,131,45,72,85,340,31,73,49,046,32*64
$GLGSV,2,2,05,81,14,344,35*59
$GAGSV,2,1,05,105,73,112,38,113,15,324,34,124,54,108,43,125,27,175,43*6D
$GAGSV,2,2,05,131,27,046,30*6A
$BDGSV,2,1,08,205,14,125,18,207,25,063,29,210,28,078,30,219,20,309,32*64
$BDGSV,2,2,08,220,67,281,38,223,50,064,37,232,46,153,42,237,64,188,41*61
$GPGSA,A,3,30,13,05,14,20,22,07,15,18,08,,,1.0,0.4,0.8*3E
$GNGSA,A,3,65,71,72,73,81,,,,,,,,1.0,0.4,0.8*2C
$GAGSA,A,3,105,113,124,125,131,,,,,,,,1.0,0.4,0.8*1B
$BDGSA,A,3,210,220,223,232,,,,,,,,,1.0,0.4,0.8*2D
$GPRMC,155845.000,A,5147.9201,N,01020.9887,E,2.4,268.1,170923,,,A*63
$GPGGA,155846.000,5147.9202,N,01020.9871,E,1,24,0.4,586.8,M,47.4,M,,*5B
$GPVTG,266.1,T,,M,2.6,N,4.9,K,A*07
$GPGSV,3,1,10,05,56,242,39,07,33,065,37,08,11,048,25,13,58,290,38*7E
$GPGSV,3,2,10,14,46,139,43,15,23,294,42,18,14,319,34,20,36,201,42*7C
$GPGSV,3,3,10,22,34,158,42,30,64,071,37*76
$GLGSV,2,1,05,65,27,315,32,71,40,131,45,72,85,340,31,73,49,046,32*64
$GLGSV,2,2,05,81,14,344,34*58
$GAGSV,2,1,05,105,73,112,38,113,15,324,33,124,54,108,43,125,27,175,42*6B
$GAGSV,2,2,05,131,27,046,30*6A
$BDGSV,2,1,08,205,14,125,16,207,25,063,28,210,28,078,30,219,20,309,33*6A
$BDGSV,2,2,08,220,67,281,38,223,50,064,37,232,46,153,42,237,64,188,41*61
$GPGSA,A,3,30,13,05,14,20,22,07,15,18,08,,,1.0,0.4,0.8*3E
$GNGSA,A,3,65,71,72,73,81,,,,,,,,1.0,0.4,0.8*2C
$GAGSA,A,3,105,113,124,125,131,,,,,,,,1.0,0.4,0.8*1B
$BDGSA,A,3,210,220,223,232,,,,,,,,,1.0,0.4,0.8*2D
$GPRMC,155846.000,A,5147.9202,N,01020.9871,E,2.6,266.1,170923,,,A*66
$GPGGA,155847.000,5147.9202,N,01020.9853,E,1,23,0.6,586.7,M,47.4,M,,*50
$GPVTG,263.7,T,,M,2.6,N,4.9,K,A*04
$GPGSV,3,1,10,05,56,242,39,07,33,065,37,08,11,048,25,13,58,290,38*7E
$GPGSV,3,2,10,14,46,139,42,15,23,294,41,18,14,319,34,20,36,201,42*7E
$GPGSV,3,3,10,22,34,158,42,30,64,071,38*79
$GLGSV,2,1,05,65,27,315,32,71,40,131,45,72,85,340,31,73,49,046,32*64
$GLGSV,2,2,05,81,14,344,34*58
$GAGSV,2,1,05,105,73,112,38,113,15,324,33,124,54,108,43,125,27,175,42*6B
$GAGSV,2,2,05,131,27,046,29*62
$BDGSV,2,1,08,205,14,125,15,207,25,063,28,210,28,078,30,219,20,309,34*6E
$BDGSV,2,2,08,220,67,281,38,223,50,064,37,232,46,153,42,237,64,188,41*61
$GPGSA,A,3,30,13,05,14,20,22,07,15,18,08,,,1.0,0.6,0.8*3C
$GNGSA,A,3,65,71,72,73,81,,,,,,,,1.0,0.6,0.8*2E
$GAGSA,A,3,105,113,124,125,,,,,,,,,1.0,0.6,0.8*2A
$BDGSA,A,3,210,220,223,232,,,,,,,,,1.0,0.6,0.8*2F
$GPRMC,155847.000,A,5147.9202,N,01020.9853,E,2.6,263.7,170923,,,A*64
$GPGGA,155848.000,5147.9201,N,01020.9839,E,1,24,0.4,586.9,M,47.4,M,,*5B
$GPVTG,264.4,T,,M,2.6,N,4.9,K,A*00
$GPGSV,3,1,10,05,56,242,39,07,33,065,37,08,11,048,25,13,58,290,38*7E
$GPGSV,3,2,10,14,46,139,42,15,23,294,41,18,14,319,34,20,36,201,42*7E
$GPGSV,3,3,10,22,34,158,42,30,64,071,38*79
$GLGSV,2,1,05,65,27,315,32,71,40,131,45,72,85,340,31,73,49,046,31*67
$GLGSV,2,2,05,81,14,344,33*5F
$GAGSV,2,1,05,105,73,112,38,113,15,324,33,124,54,108,43,125,27,175,42*6B
$GAGSV,2,2,05,131,27,046,29*62
$BDGSV,2,1,08,205,14,125,14,207,25,063,28,210,28,078,30,219,20,309,35*6E
$BDGSV,2,2,08,220,67,281,38,223,50,064,37,232,46,153,42,237,64,188,41*61
$GPGSA,A,3,30,13,05,14,20,22,07,15,18,08,,,1.0,0.4,0.8*3E
$GNGSA,A,3,65,71,72,73,81,,,,,,,,1.0,0.4,0.8*2C
$GAGSA,A,3,105,113,124,125,131,,,,,,,,1.0,0.4,0.8*1B
$BDGSA,A,3,210,220,223,232,,,,,,,,,1.0,0.4,0.8*2D
$GPRMC,155848.000,A,5147.9201,N,01020.9839,E,2.6,264.4,170923,,,A*60
$GPGGA,155849.000,5147.9200,N,01020.9823,E,1,24,0.4,586.9,M,47.4,M,,*50
$GPVTG,267.2,T,,M,2.8,N,5.1,K,A*02
$GPGSV,3,1,10,05,56,242,38,07,33,065,37,08,11,048,25,13,58,290,38*7F
$GPGSV,3,2,10,14,46,139,42,15,23,294,41,18,14,319,34,20,36,201,42*7E
$GPGSV,3,3,10,22,34,158,42,30,64,071,38*79
$GLGSV,2,1,05,65,27,315,32,71,40,131,45,72,85,340,31,73,49,046,31*67
$GLGSV,2,2,05,81,14,344,33*5F
$GAGSV,2,1,05,105,73,112,38,113,15,324,35,124,54,108,43,125,27,175,41*6E
$GAGSV,2,2,05,131,27,046,29*62
$BDGSV,2,1,08,205,14,125,13,207,25,063,28,210,28,078,31,219,20,309,36*6B
$BDGSV,2,2,08,220,67,281,39,223,50,064,37,232,46,153,42,237,64,188,40*61
$GPGSA,A,3,30,13,05,14,20,22,07,15,18,08,,,1.0,0.4,0.8*3E
$GNGSA,A,3,65,71,72,73,81,,,,,,,,1.0,0.4,0.8*2C
$GAGSA,A,3,105,113,124,125,131,,,,,,,,1.0,0.4,0.8*1B
$BDGSA,A,3,210,220,223,232,,,,,,,,,1.0,0.4,0.8*2D
$GPRMC,155849.000,A,5147.9200,N,01020.9823,E,2.8,267.2,170923,,,A*60
$GPGGA,155850.000,5147.9199,N,01020.9812,E,1,24,0.4,586.6,M,47.4,M,,*56
$GPVTG,265.2,T,,M,2.6,N,4.8,K,A*06
$GPGSV,3,1,10,05,56,242,38,07,33,065,37,08,11,048,25,13,58,290,38*7F
$GPGSV,3,2,10,14,46,139,42,15,23,294,41,18,14,319,34,20,36,201,42*7E
$GPGSV,3,3,10,22,34,158,42,30,64,071,38*79
$GLGSV,2,1,05,65,27,315,33,71,40,131,45,72,85,341,31,73,48,046,31*66
$GLGSV,2,2,05,81,14,344,32*5E
$GAGSV,2,1,05,105,73,112,38,113,15,324,36,124,54,108,43,125,27,175,41*6D
$GAGSV,2,2,05,131,27,046,29*62
$BDGSV,2,1,08,205,14,125,12,207,25,063,28,210,28,078,31,219,20,309,36*6A
$BDGSV,2,2,08,220,67,280,40,223,50,064,37,232,46,153,42,237,64,188,40*6E
$GPGSA,A,3,30,13,05,14,20,22,07,15,18,08,,,1.0,0.4,0.8*3E
$GNGSA,A,3,65,71,72,73,81,,,,,,,,1.0,0.4,0.8*2C
$GAGSA,A,3,105,113,124,125,131,,,,,,,,1.0,0.4,0.8*1B
$BDGSA,A,3,210,220,223,232,,,,,,,,,1.0,0.4,0.8*2D
$GPRMC,155850.000,A,5147.9199,N,01020.9812,E,2.6,265.2,170923,,,A*65
$GPGGA,155851.000,5147.9199,N,01020.9802,E,1,24,0.4,586.7,M,47.4,M,,*57
$GPVTG,268.1,T,,M,2.7,N,5.0,K,A*00
$GPGSV,3,1,10,05,56,242,38,07,33,065,36,08,11,048,25,13,58,290,38*7E
$GPGSV,3,2,10,14,46,139,42,15,23,294,40,18,14,319,33,20,36,201,42*78
$GPGSV,3,3,10,22,34,158,42,30,64,071,38*79
$GLGSV,2,1,05,65,27,315,33,71,40,131,45,72,85,341,31,73,48,046,31*66
$GLGSV,2,2,05,81,14,344,39*55
$GAGSV,2,1,05,105,73,112,38,113,15,324,36,124,54,108,43,125,27,175,40*6C
$GAGSV,2,2,05,131,27,046,28*63
$BDGSV,2,1,07,207,25,063,27,210,28,078,32,219,20,309,36,220,67,280,40*61
$BDGSV,2,2,07,223,50,064,37,232,46,153,42,237,64,188,40*6E
$GPGSA,A,3,30,13,05,14,20,22,07,15,18,08,,,1.0,0.4,0.8*3E
$GNGSA,A,3,65,71,72,73,81,,,,,,,,1.0,0.4,0.8*2C
$GAGSA,A,3,105,113,124,125,131,,,,,,,,1.0,0.4,0.8*1B
$BDGSA,A,3,210,220,223,232,,,,,,,,,1.0,0.4,0.8*2D
$GPRMC,155851.000,A,5147.9199,N,01020.9802,E,2.7,268.1,170923,,,A*6A
$GPGGA,155852.000,5147.9198,N,01020.9789,E,1,24,0.4,586.7,M,47.4,M,,*59
$GPVTG,264.7,T,,M,2.8,N,5.1,K,A*04
$GPGSV,3,1,10,05,56,241,38,07,33,065,36,08,11,048,25,13,58,290,39*7C
$GPGSV,3,2,10,14,46,139,42,15,23,294,39,18,14,319,33,20,36,201,42*76
$GPGSV,3,3,10,22,34,158,41,30,64,071,38*7A
$GLGSV,2,1,05,65,27,315,33,71,40,131,45,72,85,341,31,73,48,046,31*66
$GLGSV,2,2,05,81,14,344,39*55
$GAGSV,2,1,05,105,73,112,38,113,15,324,36,124,54,107,43,125,27,175,40*63
$GAGSV,2,2,05,131,27,046,28*63
$BDGSV,2,1,07,207,25,063,27,210,28,078,33,219,20,309,36,220,67,280,40*60
$BDGSV,2,2,07,223,50,064,37,232,46,153,42,237,64,188,40*6E
$GPGSA,A,3,30,13,05,14,20,22,07,15,18,08,,,1.0,0.4,0.8*3E
$GNGSA,A,3,65,71,72,73,81,,,,,,,,1.0,0.4,0.8*2C
$GAGSA,A,3,105,113,124,125,131,,,,,,,,1.0,0.4,0.8*1B
$BDGSA,A,3,210,220,223,232,,,,,,,,,1.0,0.4,0.8*2D
$GPRMC,155852.000,A,5147.9198,N,01020.9789,E,2.8,264.7,170923,,,A*61
$GPGGA,155853.000,5147.9198,N,01020.9776,E,1,24,0.4,586.6,M,47.4,M,,*59
$GPVTG,263.2,T,,M,2.8,N,5.1,K,A*06
$GPGSV,3,1,10,05,56,241,39,07,33,065,36,08,11,047,25,13,59,290,39*73
$GPGSV,3,2,10,14,46,139,42,15,23,294,39,18,14,319,33,20,36,201,42*76
$GPGSV,3,3,10,22,34,158,41,30,64,071,38*7A
$GLGSV,2,1,05,65,27,315,33,71,40,131,45,72,85,341,31,73,48,046,31*66
$GLGSV,2,2,05,81,14,344,39*55
$GAGSV,2,1,05,105,73,112,38,113,15,324,36,124,54,107,43,125,28,175,40*6C
$GAGSV,2,2,05,131,27,046,32*68
$BDGSV,2,1,07,207,25,063,30,210,28,078,34,219,20,309,35,220,67,280,40*62
$BDGSV,2,2,07,223,50,064,37,232,46,153,42,237,64,188,40*6E
$GPGSA,A,3,30,13,05,14,20,22,07,15,18,08,,,1.0,0.4,0.8*3E
$GNGSA,A,3,65,71,72,73,81,,,,,,,,1.0,0.4,0.8*2C
$GAGSA,A,3,105,113,124,125,131,,,,,,,,1.0,0.4,0.8*1B
$BDGSA,A,3,210,220,223,232,,,,,,,,,1.0,0.4,0.8*2D
$GPRMC,155853.000,A,5147.9198,N,01020.9776,E,2.8,263.2,170923,,,A*62
$GPGGA,155854.000,5147.9197,N,01020.9763,E,1,24,0.4,586.9,M,47.4,M,,*5A
$GPVTG,261.8,T,,M,2.8,N,5.1,K,A*0E
$GPGSV,3,1,10,05,56,241,39,07,33,065,36,08,11,047,25,13,59,290,39*73
$GPGSV,3,2,10,14,47,138,42,15,23,294,39,18,14,319,33,20,36,201,42*76
$GPGSV,3,3,10,22,34,158,41,30,64,071,39*7B
$GLGSV,2,1,05,65,27,315,33,71,40,131,45,72,85,341,30,73,48,046,31*67
$GLGSV,2,2,05,81,14,344,38*54
$GAGSV,2,1,05,105,73,112,38,113,15,324,36,124,54,107,43,125,28,175,39*62
$GAGSV,2,2,05,131,27,046,34*6E
$BDGSV,2,1,07,207,25,063,31,210,28,078,34,219,20,309,35,220,67,280,40*63
$BDGSV,2,2,07,223,50,064,37,232,46,153,42,237,64,188,40*6E
$GPGSA,A,3,30,13,05,14,20,22,07,15,18,08,,,1.0,0.4,0.8*3E
$GNGSA,A,3,65,71,72,73,81,,,,,,,,1.0,0.4,0.8*2C
$GAGSA,A,3,105,113,124,125,,,,,,,,,1.0,0.4,0.8*28
$BDGSA,A,3,207,210,220,223,232,,,,,,,,1.0,0.4,0.8*18
$GPRMC,155854.000,A,5147.9197,N,01020.9763,E,2.8,261.8,170923,,,A*66
$GPGGA,155855.000,5147.9196,N,01020.9751,E,1,24,0.4,586.9,M,47.4,M,,*5B
$GPVTG,262.1,T,,M,2.5,N,4.7,K,A*0E
$GPGSV,3,1,10,05,56,241,39,07,33,065,37,08,11,047,25,13,59,290,38*73
$GPGSV,3,2,10,14,47,138,42,15,23,294,38,18,14,318,33,20,36,200,42*77
$GPGSV,3,3,10,22,34,158,41,30,64,071,39*7B
$GLGSV,2,1,05,65,27,315,33,71,40,131,45,72,85,341,30,73,48,046,32*64
$GLGSV,2,2,05,81,14,344,38*54
$GAGSV,2,1,05,105,73,112,38,113,15,324,36,124,54,107,43,125,28,175,39*62
$GAGSV,2,2,05,131,27,046,34*6E
$BDGSV,2,1,07,207,25,063,31,210,28,078,35,219,20,309,34,220,67,280,40*63
$BDGSV,2,2,07,223,50,064,38,232,46,153,41,237,64,188,40*62
$GPGSA,A,3,30,13,05,14,20,22,07,15,18,08,,,1.0,0.4,0.8*3E
$GNGSA,A,3,65,71,72,73,81,,,,,,,,1.0,0.4,0.8*2C
$GAGSA,A,3,105,113,124,125,,,,,,,,,1.0,0.4,0.8*28
$BDGSA,A,3,207,210,220,223,232,,,,,,,,1.0,0.4,0.8*18
$GPRMC,155855.000,A,5147.9196,N,01020.9751,E,2.5,262.1,170923,,,A*60
$GPGGA,155856.000,5147.9193,N,01020.9740,E,1,24,0.4,587.1,M,47.4,M,,*54
$GPVTG,260.0,T,,M,2.5,N,4.7,K,A*0D
$GPGSV,3,1,10,05,56,241,38,07,33,065,37,08,11,047,25,13,59,290,38*72
$GPGSV,3,2,10,14,47,138,42,15,23,294,38,18,14,318,33,20,36,200,42*77
$GPGSV,3,3,10,22,34,158,40,30,64,071,39*7A
$GLGSV,2,1,05,65,27,315,33,71,40,131,45,72,85,341,30,73,48,046,32*64
$GLGSV,2,2,05,81,14,344,38*54
$GAGSV,2,1,05,105,73,112,38,113,15,324,35,124,54,107,43,125,28,175,39*61
$GAGSV,2,2,05,131,27,046,34*6E
$BDGSV,2,1,07,207,25,063,31,210,28,078,35,219,20,309,34,220,67,280,40*63
$BDGSV,2,2,07,223,50,064,38,232,46,153,41,237,64,188,40*62
$GPGSA,A,3,30,13,05,14,20,22,07,15,18,08,,,1.0,0.4,0.8*3E
$GNGSA,A,3,65,71,72,73,81,,,,,,,,1.0,0.4,0.8*2C
$GAGSA,A,3,105,113,124,125,,,,,,,,,1.0,0.4,0.8*28
$BDGSA,A,3,207,210,220,223,232,,,,,,,,1.0,0.4,0.8*18
$GPRMC,155856.000,A,5147.9193,N,01020.9740,E,2.5,260.0,170923,,,A*65
$GPGGA,155857.000,5147.9192,N,01020.9727,E,1,24,0.4,587.6,M,47.4,M,,*52
$GPVTG,262.8,T,,M,2.7,N,5.1,K,A*02
$GPGSV,3,1,10,05,56,241,38,07,33,065,37,08,11,047,25,13,59,290,38*72
$GPGSV,3,2,10,14,47,138,42,15,23,294,37,18,14,318,33,20,36,200,42*78
$GPGSV,3,3,10,22,34,158,40,30,64,071,39*7A
$GLGSV,2,1,05,65,27,315,33,71,40,131,44,72,85,341,30,73,48,046,32*65
$GLGSV,2,2,05,81,14,344,38*54
$GAGSV,2,1,05,105,73,112,38,113,15,324,35,124,54,107,43,125,28,175,39*61
$GAGSV,2,2,05,131,27,046,34*6E
$BDGSV,2,1,07,207,25,063,31,210,28,078,35,219,20,309,33,220,67,280,40*64
$BDGSV,2,2,07,223,50,064,38,232,46,153,40,237,64,188,40*63
$GPGSA,A,3,30,13,05,14,20,22,07,15,18,08,,,1.0,0.4,0.8*3E
$GNGSA,A,3,65,71,72,73,81,,,,,,,,1.0,0.4,0.8*2C
$GAGSA,A,3,105,113,124,125,,,,,,,,,1.0,0.4,0.8*28
